id,name,lat,lon,type, fuel,region,country,status,capacity,emfpm10, pm10,emfpm25, pm25,emfso2, so2,emfnox, nox
WSB-1,OpenStreetMap Landfill,23.79789347,90.30034971,Dumpsites,,,Bangladesh,operating_status,0,,,,,,,,
WSB-2,"Dinajpur, Dinajpur district, Rangpur Division",25.63361111,88.65861111,Plastic_waste,,,Bangladesh,operating_status,677,,,,,,,,
WSB-3,"Jessore - Narail Hwy, Fatehpur, Jashore",23.16277778,89.24194444,Plastic_waste,,,Bangladesh,operating_status,"1,020",,,,,,,,
WSB-4,"Jirabo, Savar, Savar Subdistrict",23.92277778,90.31833333,Plastic_waste,,,Bangladesh,operating_status,666,,,,,,,,
WSB-5,"Jirabo, Savar, Savar Subdistrict",23.90777778,90.3125,Plastic_waste,,,Bangladesh,operating_status,"1,001",,,,,,,,
WSB-6,"Jirabo, Savar, Savar Subdistrict",23.91638889,90.30388889,Plastic_waste,,,Bangladesh,operating_status,89,,,,,,,,
WSB-7,"Baipail, Savar, Savar Subdistrict",23.92861111,90.27055556,Plastic_waste,,,Bangladesh,operating_status,7,,,,,,,,
WSB-8,"N R CNG Filling Station ?? ?? ?????? ????? ??????, Dhaka - Aricha Highway, Aminbazar",23.79777778,90.30111111,Plastic_waste,,,Bangladesh,operating_status,"62,430",,,,,,,,
WSB-9,"Keraniganj Subdistrict, Dhaka District, Dhaka Division",23.77305556,90.24,Plastic_waste,,,Bangladesh,operating_status,"12,263",,,,,,,,
WSB-10,"Nabinagar - Chandra Highway, Savar Subdistrict, Gazipur District",23.98111111,90.26111111,Plastic_waste,,,Bangladesh,operating_status,"1,386",,,,,,,,
WSB-11,"Nabinagar - Chandra Highway, Baipail, Sreepur",23.97166667,90.265,Plastic_waste,,,Bangladesh,operating_status,714,,,,,,,,
WSB-12,"Faridpur, Faridpur Sadar, Faridpur District",23.62277778,89.84527778,Plastic_waste,,,Bangladesh,operating_status,"2,227",,,,,,,,
WSB-13,"Green Model Town, Dhaka, Dhaka Metropolitan",23.72027778,90.45194444,Plastic_waste,,,Bangladesh,operating_status,"21,289",,,,,,,,
WSB-14,"N404, Tangail, Tangail District",24.27944444,89.91861111,Plastic_waste,,,Bangladesh,operating_status,"1,334",,,,,,,,
WSI-15,OpenStreetMap Landfill,26.44879069,80.23414917,Dumpsites,,,India,operating_status,0,,,,,,,,
WSI-16,OpenStreetMap Landfill,28.51897629,77.31985554,Dumpsites,,,India,operating_status,0,,,,,,,,
WSI-17,"Mandi Dabwali, Dabwali, Sirsa",29.95810865,74.69024591,Dumpsites,,,India,operating_status,2085.05,,,,,,,,
WSI-18,OpenStreetMap Landfill,25.21651689,87.57223101,Dumpsites,,,India,operating_status,0,,,,,,,,
WSI-19,OpenStreetMap Landfill,25.19760546,87.66314084,Dumpsites,,,India,operating_status,0,,,,,,,,
WSI-20,"Gp Block, Bhangar - Ii, South 24 Parganas",22.56436129,88.44814159,Dumpsites,,,India,operating_status,39800.24,,,,,,,,
WSI-21,"Abohar, Abohar Tahsil, Fazilka",30.14190134,74.18220034,Dumpsites,,,India,operating_status,17116.26,,,,,,,,
WSI-22,"Foster Supermarket, E331, Indiaustrial Area",30.7096419,76.68254875,Dumpsites,,,India,operating_status,13429.59,,,,,,,,
WSI-23,"Meerut-Karnal Marg, Mirgain, Karnal",29.64379324,77.04850677,Dumpsites,,,India,operating_status,12127.42,,,,,,,,
WSI-24,"Kapurthala, Kapurthala Tahsil, Kapurthala",31.3034239,75.33469581,Dumpsites,,,India,operating_status,10907.1,,,,,,,,
WSI-25,"Unnao, Uttar Pradesh, 209800",26.55583075,80.52041636,Dumpsites,,,India,operating_status,10551.31,,,,,,,,
WSI-26,"Ward 26, Kishangarh, Chandigarh",30.72353969,76.82761512,Dumpsites,,,India,operating_status,9975.37,,,,,,,,
WSI-27,"Rohtak, Haryana, 124001",28.87792439,76.55313974,Dumpsites,,,India,operating_status,9814.31,,,,,,,,
WSI-28,"Vasant Vihar Tehsil, New Delhi, Delhi",28.53300998,77.12715138,Dumpsites,,,India,operating_status,8609.42,,,,,,,,
WSI-29,"Rampur, Rampur District, Uttar Pradesh",28.81545817,79.01362708,Dumpsites,,,India,operating_status,7049.62,,,,,,,,
WSI-30,"Malerkotla, Malerkotla Tahsil, Sangrur",30.54683251,75.86407871,Dumpsites,,,India,operating_status,6388.41,,,,,,,,
WSI-31,"Midnapore, Paschim Medinipur, West Bengal",22.42226153,87.34100419,Dumpsites,,,India,operating_status,5944.86,,,,,,,,
WSI-32,"Jaggadal, Barrackpur - I, North 24 Parganas",22.85974773,88.38814378,Dumpsites,,,India,operating_status,5622.01,,,,,,,,
WSI-33,"Pusta Road, Khajuri, Seelampur",28.68659361,77.25154256,Dumpsites,,,India,operating_status,5564.89,,,,,,,,
WSI-34,"Bolpur Nursing Home, Nh114, Shantiniketan",23.68078131,87.72247489,Dumpsites,,,India,operating_status,5150.17,,,,,,,,
WSI-35,"Digha Contai Road, Contai, Contai-I",21.76500681,87.73044549,Dumpsites,,,India,operating_status,5135.43,,,,,,,,
WSI-36,"Badu, Barasat - Ii, North 24 Parganas",22.69162163,88.50129819,Dumpsites,,,India,operating_status,4450.4,,,,,,,,
WSI-37,"Ghaziabad, Ghaziabad District, Uttar Pradesh",28.71638544,77.33186136,Dumpsites,,,India,operating_status,3930.69,,,,,,,,
WSI-38,"Moradabad, Uttar Pradesh, India",28.95735376,78.82445639,Dumpsites,,,India,operating_status,3912.61,,,,,,,,
WSI-39,"Focal Point - 2, BathIndiaa, BathIndiaa Tahsil",30.18218857,74.95338329,Dumpsites,,,India,operating_status,3786.85,,,,,,,,
WSI-40,"Greater Noida, Gautam Buddha Nagar, Uttar Pradesh",28.50383771,77.53238781,Dumpsites,,,India,operating_status,3433.05,,,,,,,,
WSI-41,"Bally, Bally Jagachha, Howrah",22.63566759,88.33412936,Dumpsites,,,India,operating_status,3308.05,,,,,,,,
WSI-42,"Sampatchak, Patna District, Bihar",25.56613117,85.17826957,Dumpsites,,,India,operating_status,3272.18,,,,,,,,
WSI-43,"Nh148B, Bhiwani, Bhiwani District",28.78139259,76.12473191,Dumpsites,,,India,operating_status,3094.73,,,,,,,,
WSI-44,"JIndia, Haryana, 126100",29.31059128,76.30886403,Dumpsites,,,India,operating_status,3054.08,,,,,,,,
WSI-45,"Barasat, Barasat - I, North 24 Parganas",22.70557997,88.51867675,Dumpsites,,,India,operating_status,3030.07,,,,,,,,
WSI-46,"Pataudi, Gurugram, Haryana",28.31978981,76.77482781,Dumpsites,,,India,operating_status,2889.22,,,,,,,,
WSI-47,"Naihati, Barrackpur - I, North 24 Parganas",22.89544859,88.41081914,Dumpsites,,,India,operating_status,2660.59,,,,,,,,
WSI-48,"Rampurhat, Rampurhat - I, Birbhum",24.18793289,87.75696494,Dumpsites,,,India,operating_status,2545.59,,,,,,,,
WSI-49,"Uttarpara Kotrung, Serampur Uttarpara, Hugli",22.66676764,88.33539588,Dumpsites,,,India,operating_status,2451.52,,,,,,,,
WSI-50,"Huda, Sector 21, Gurgaon",28.51334106,77.07111936,Dumpsites,,,India,operating_status,2395.25,,,,,,,,
WSI-51,"Maheshtala, Thakurpukur Maheshtala, South 24 Parganas",22.49296663,88.20559455,Dumpsites,,,India,operating_status,2294.27,,,,,,,,
WSI-52,"Sonipat, Haryana, 131001",29.03573952,77.05928298,Dumpsites,,,India,operating_status,2284.79,,,,,,,,
WSI-53,"Krishnanagar City, Krishnanagar, Krishnagar-I",23.4052008,88.51160004,Dumpsites,,,India,operating_status,2187.08,,,,,,,,
WSI-54,"Mandi Dabwali, Dabwali, Sirsa",29.95810865,74.69024591,Dumpsites,,,India,operating_status,2085.05,,,,,,,,
WSI-55,"Odr32, Giddarbaha, Gidderbaha Tahsil",30.20093596,74.67135303,Dumpsites,,,India,operating_status,2080.96,,,,,,,,
WSI-56,"Punjabi Bagh Tehsil, West Delhi, Delhi",28.67499067,77.13314799,Dumpsites,,,India,operating_status,2015.54,,,,,,,,
WSI-57,"Jiaganj, Murshidabad Jiaganj, Murshidabad",24.22637587,88.26787871,Dumpsites,,,India,operating_status,1997.27,,,,,,,,
WSI-58,"Pace Cityii, Sector 36, Gurgaon",28.42215076,76.98963273,Dumpsites,,,India,operating_status,1970.05,,,,,,,,
WSI-59,"Mathura, Uttar Pradesh, 281001",27.46103174,77.71197512,Dumpsites,,,India,operating_status,1907.83,,,,,,,,
WSI-60,"Bahraich, Uttar Pradesh, 271801",27.58906285,81.60109226,Dumpsites,,,India,operating_status,1900.16,,,,,,,,
WSI-61,"Sangaria Road, Hanumangarh, Hanumangarh Tehsil",29.64560192,74.32062937,Dumpsites,,,India,operating_status,1895.17,,,,,,,,
WSI-62,"Sh4, Ghatal, Paschim Medinipur",22.6636132,87.72401224,Dumpsites,,,India,operating_status,1845.61,,,,,,,,
WSI-63,"Karchhana, Prayagraj, Uttar Pradesh",25.37967539,81.80538019,Dumpsites,,,India,operating_status,1841.6,,,,,,,,
WSI-64,"Punjabi Bagh Tehsil, West Delhi, Delhi",28.66519482,76.96512235,Dumpsites,,,India,operating_status,1830.94,,,,,,,,
WSI-65,"Nilgunj Road, Kamarhati, Barrackpur - Ii",22.67868228,88.38005235,Dumpsites,,,India,operating_status,1769.87,,,,,,,,
WSI-66,"Beltala, Barrackpore, Barrackpur - Ii",22.74902429,88.38258201,Dumpsites,,,India,operating_status,1743.27,,,,,,,,
WSI-67,"Sardar Bazar, Barrackpore, Barrackpur - Ii",22.77032703,88.33791195,Dumpsites,,,India,operating_status,1733.75,,,,,,,,
WSI-68,"Beri, Jhajjar, Haryana",28.72929232,76.66983733,Dumpsites,,,India,operating_status,1711.58,,,,,,,,
WSI-69,"Baraut, Baghpat, Uttar Pradesh",29.08527477,77.25855577,Dumpsites,,,India,operating_status,1685.62,,,,,,,,
WSI-70,"Howrah, Haora, Howrah",22.61039609,88.32622551,Dumpsites,,,India,operating_status,1660.05,,,,,,,,
WSI-71,"Sodepur, Panihati, Barrackpur - Ii",22.69176963,88.38586895,Dumpsites,,,India,operating_status,1484.07,,,,,,,,
WSI-72,"Barharganj, Nh730, Padrauna",26.9241593,83.92082686,Dumpsites,,,India,operating_status,1455.54,,,,,,,,
WSI-73,"VrIndiaavan, Mathura, Uttar Pradesh",27.55622174,77.68235353,Dumpsites,,,India,operating_status,1414.12,,,,,,,,
WSI-74,"Sector 1, Manesar, Gurugram",28.35673244,76.94389226,Dumpsites,,,India,operating_status,1403.98,,,,,,,,
WSI-75,"Sector 106, Gurgaon, Gurugram",28.49832618,77.00233295,Dumpsites,,,India,operating_status,1399.35,,,,,,,,
WSI-76,"Summer Sprint Py, Asola, Sohna",28.40184662,77.17115072,Dumpsites,,,India,operating_status,1361.51,,,,,,,,
WSI-77,"Indiaustrial Modern Township Manesar, Manesar, Gurugram",28.35770798,76.91378948,Dumpsites,,,India,operating_status,1336.57,,,,,,,,
WSI-78,"Allahbas, Dadri, Gautam Buddha Nagar",28.5187239,77.41689754,Dumpsites,,,India,operating_status,1297.23,,,,,,,,
WSI-79,"Saraswati Vihar Tehsil, North West Delhi, Delhi",28.71425499,77.16136969,Dumpsites,,,India,operating_status,1296.13,,,,,,,,
WSI-80,"Kanchrapara, Barrackpur - I, North 24 Parganas",22.94934674,88.43282166,Dumpsites,,,India,operating_status,1254.42,,,,,,,,
WSI-81,"Ghaziabad, Ghaziabad District, Uttar Pradesh",28.70274036,77.44668644,Dumpsites,,,India,operating_status,1141.6,,,,,,,,
WSI-82,"Dinanagar, Gurdaspur Tahsil, Gurdaspur District",32.12741805,75.46919809,Dumpsites,,,India,operating_status,1112.43,,,,,,,,
WSI-83,"Sainik Farm, Tigri, Saket Tehsil",28.49914403,77.22263117,Dumpsites,,,India,operating_status,1050.12,,,,,,,,
WSI-84,"Kharagpur, Kharagpur-I, Paschim Medinipur",22.33262234,87.29863055,Dumpsites,,,India,operating_status,1042.5,,,,,,,,
WSI-85,"Dhaurahara, Kheri, Uttar Pradesh",27.88805759,81.11991129,Dumpsites,,,India,operating_status,1033.85,,,,,,,,
WSI-86,"Asola, Sohna, Gurugram",28.41136074,77.13386307,Dumpsites,,,India,operating_status,1003.57,,,,,,,,
WSI-87,Okhla,28.32374,77.1781718,Dumpsites,,,India,operating_status,539998.46,,,,,,,,
WSI-88,Bhalaswa,28.74041964,77.15741158,Dumpsites,,,India,operating_status,161799.83,,,,,,,,
WSI-89,Ghazipur,28.62502474,77.32744217,Dumpsites,,,India,operating_status,300505.05,,,,,,,,
WSI-90,Dhapa,22.53893819,88.42331171,Dumpsites,,,India,operating_status,310001.75,,,,,,,,
WSI-91,Moti Jheel,26.84452778,80.90634722,Dumpsites,,,India,operating_status,32800.12,,,,,,,,
WSI-92,"Sampatchak, Patna District, Bihar",25.56611111,85.17805556,Plastic_waste,,,India,operating_status,"3,272",,,,,,,,
WSI-93,"Gorakhpur, Uttar Pradesh, 273001",26.72722222,83.34361111,Plastic_waste,,,India,operating_status,862,,,,,,,,
WSI-94,"Kasya, Kushinagar, Uttar Pradesh",26.75361111,83.95305556,Plastic_waste,,,India,operating_status,843,,,,,,,,
WSI-95,"Barharganj, NH730, Padrauna",26.92388889,83.92055556,Plastic_waste,,,India,operating_status,"1,455",,,,,,,,
WSI-96,"Sadar, Varanasi, Uttar Pradesh",25.21416667,82.92,Plastic_waste,,,India,operating_status,754,,,,,,,,
WSI-97,"Azamgarh, Uttar Pradesh, 276001",26.02555556,83.12722222,Plastic_waste,,,India,operating_status,899,,,,,,,,
WSI-98,"Kishanganj, Kishanganj district, Bihar",26.11527778,87.955,Plastic_waste,,,India,operating_status,830,,,,,,,,
WSI-99,"Mansahi, Katihar, Bihar",25.50861111,87.57722222,Plastic_waste,,,India,operating_status,294,,,,,,,,
WSI-100,"Bahraich, Uttar Pradesh, 271801",27.58888889,81.60083333,Plastic_waste,,,India,operating_status,"1,900",,,,,,,,
WSI-101,"Dhaurahara, Kheri, Uttar Pradesh",27.88805556,81.11972222,Plastic_waste,,,India,operating_status,"1,033",,,,,,,,
WSI-102,"Diamond Harbour Road, Diamond Harbour, Diamond Harbour - I",22.17138889,88.22861111,Plastic_waste,,,India,operating_status,512,,,,,,,,
WSI-103,"Falta Special Economic Zone, Diamond Harbour - II, South 24 Parganas",22.28111111,88.10083333,Plastic_waste,,,India,operating_status,923,,,,,,,,
WSI-104,"Digha Contai Road, Contai, Contai-I",21.765,87.73027778,Plastic_waste,,,India,operating_status,"5,135",,,,,,,,
WSI-105,"Midnapore, Paschim Medinipur, West Bengal",22.42416667,87.2925,Plastic_waste,,,India,operating_status,176,,,,,,,,
WSI-106,"Midnapore, Paschim Medinipur, West Bengal",22.42222222,87.34083333,Plastic_waste,,,India,operating_status,"5,944",,,,,,,,
WSI-107,"Kharagpur, Kharagpur-I, Paschim Medinipur",22.3325,87.29861111,Plastic_waste,,,India,operating_status,"1,042",,,,,,,,
WSI-108,"SH14, Dubrajpur, Birbhum",23.79222222,87.39722222,Plastic_waste,,,India,operating_status,639,,,,,,,,
WSI-109,"Krishnanagar City, Krishnanagar, Krishnagar-I",23.405,88.51138889,Plastic_waste,,,India,operating_status,"2,187",,,,,,,,
WSI-110,"Badu, Barasat - II, North 24 Parganas",22.69138889,88.50111111,Plastic_waste,,,India,operating_status,"4,450",,,,,,,,
WSI-111,"Nilgunj Road, Kamarhati, Barrackpur - II",22.67861111,88.38,Plastic_waste,,,India,operating_status,"1,769",,,,,,,,
WSI-112,"Sodepur, Panihati, Barrackpur - II",22.69166667,88.38583333,Plastic_waste,,,India,operating_status,"1,484",,,,,,,,
WSI-113,"Barasat, Barasat - I, North 24 Parganas",22.70555556,88.51861111,Plastic_waste,,,India,operating_status,"3,030",,,,,,,,
WSI-114,"Halisahar, Barrackpur - I, North 24 Parganas",22.92888889,88.42055556,Plastic_waste,,,India,operating_status,957,,,,,,,,
WSI-115,"Kanchrapara, Barrackpur - I, North 24 Parganas",22.94916667,88.43277778,Plastic_waste,,,India,operating_status,"1,254",,,,,,,,
WSI-116,"Kalyani-Barrackpur expressway, Kalyani, Chakdah",22.96055556,88.43888889,Plastic_waste,,,India,operating_status,378,,,,,,,,
WSI-117,"Naihati, Barrackpur - I, North 24 Parganas",22.89527778,88.41055556,Plastic_waste,,,India,operating_status,"2,660",,,,,,,,
WSI-118,"Jaggadal, Barrackpur - I, North 24 Parganas",22.85972222,88.38805556,Plastic_waste,,,India,operating_status,"5,622",,,,,,,,
WSI-119,"Chunchura, Chinsurah - Magra, Hugli",22.89305556,88.3775,Plastic_waste,,,India,operating_status,693,,,,,,,,
WSI-120,"Chandannagar, Singur, Hugli",22.87194444,88.35972222,Plastic_waste,,,India,operating_status,256,,,,,,,,
WSI-121,"Sardar Bazar, Barrackpore, Barrackpur - II",22.77027778,88.33777778,Plastic_waste,,,India,operating_status,"1,733",,,,,,,,
WSI-122,"Serampore, Serampur Uttarpara, Hugli",22.78805556,88.30916667,Plastic_waste,,,India,operating_status,622,,,,,,,,
WSI-123,"Beltala, Barrackpore, Barrackpur - II",22.74888889,88.3825,Plastic_waste,,,India,operating_status,"1,743",,,,,,,,
WSI-124,"Serampore, Serampur Uttarpara, Hugli",22.72805556,88.34833333,Plastic_waste,,,India,operating_status,600,,,,,,,,
WSI-125,"Math Para, Titagarh, Barrackpur - II",22.73583333,88.37666667,Plastic_waste,,,India,operating_status,346,,,,,,,,
WSI-126,"Lenninagar, Shyamnagar, Garshyamnagar",22.81777778,88.37138889,Plastic_waste,,,India,operating_status,970,,,,,,,,
WSI-127,"Chandannagar, Singur, Hugli",22.83416667,88.34638889,Plastic_waste,,,India,operating_status,497,,,,,,,,
WSI-128,"Maheshtala, Thakurpukur Maheshtala, South 24 Parganas",22.49277778,88.20555556,Plastic_waste,,,India,operating_status,"2,294",,,,,,,,
WSI-129,"Maheshtala, Thakurpukur Maheshtala, South 24 Parganas",22.54388889,88.27527778,Plastic_waste,,,India,operating_status,856,,,,,,,,
WSI-130,"Budge Budge, Budge Budge - I, South 24 Parganas",22.47333333,88.18888889,Plastic_waste,,,India,operating_status,785,,,,,,,,
WSI-131,"Dhapa Road, Makaltala, Kolkata",22.53666667,88.42416667,Plastic_waste,,,India,operating_status,"91,275",,,,,,,,
WSI-132,"GP Block, Bhangar - II, South 24 Parganas",22.56416667,88.44805556,Plastic_waste,,,India,operating_status,"39,800",,,,,,,,
WSI-133,"Rajpur Sonarpur, Sonarpur, South 24 Parganas",22.42222222,88.42527778,Plastic_waste,,,India,operating_status,898,,,,,,,,
WSI-134,"Bally, Bally Jagachha, Howrah",22.63555556,88.33388889,Plastic_waste,,,India,operating_status,"3,308",,,,,,,,
WSI-135,"Howrah, Haora, Howrah",22.61027778,88.32611111,Plastic_waste,,,India,operating_status,"1,660",,,,,,,,
WSI-136,"Uttarpara Kotrung, Serampur Uttarpara, Hugli",22.66666667,88.33527778,Plastic_waste,,,India,operating_status,"2,451",,,,,,,,
WSI-137,"Jiaganj, Murshidabad Jiaganj, Murshidabad",24.22611111,88.26777778,Plastic_waste,,,India,operating_status,"1,997",,,,,,,,
WSI-138,"Rajgram, Murarai - I, Birbhum",24.54472222,87.87027778,Plastic_waste,,,India,operating_status,404,,,,,,,,
WSI-139,"Rampurhat, Rampurhat - I, Birbhum",24.18777778,87.75694444,Plastic_waste,,,India,operating_status,"2,545",,,,,,,,
WSI-140,"Nabadwip, Nadia, West Bengal",23.41527778,88.35555556,Plastic_waste,,,India,operating_status,932,,,,,,,,
WSI-141,"SH4, Ghatal, Paschim Medinipur",22.66361111,87.72388889,Plastic_waste,,,India,operating_status,"1,845",,,,,,,,
WSI-142,"Bolpur Nursing Home, NH114, Shantiniketan",23.68055556,87.72222222,Plastic_waste,,,India,operating_status,"5,150",,,,,,,,
WSI-143,"Ward 26, Kishangarh, Chandigarh",30.72333333,76.8275,Plastic_waste,,,India,operating_status,"9,975",,,,,,,,
WSI-144,"Sonipat, Haryana, 131001",29.03555556,77.05916667,Plastic_waste,,,India,operating_status,"2,284",,,,,,,,
WSI-145,"Baraut, Baghpat, Uttar Pradesh",29.085,77.25833333,Plastic_waste,,,India,operating_status,"1,685",,,,,,,,
WSI-146,"Sardhana, Meerut, Uttar Pradesh",29.14333333,77.61944444,Plastic_waste,,,India,operating_status,299,,,,,,,,
WSI-147,"Kurukshetra, Thanesar, Kurukshetra",29.96166667,76.83611111,Plastic_waste,,,India,operating_status,556,,,,,,,,
WSI-148,"Meerut-Karnal Marg, Mirgain, Karnal",29.64361111,77.04833333,Plastic_waste,,,India,operating_status,"12,127",,,,,,,,
WSI-149,"Panipat, Haryana, 132100",29.41444444,76.94972222,Plastic_waste,,,India,operating_status,736,,,,,,,,
WSI-150,"Foster Supermarket, E331, Indiaustrial Area",30.70944444,76.6825,Plastic_waste,,,India,operating_status,"13,429",,,,,,,,
WSI-151,"Khanpur, Kharar Tahsil, Sahibzada Ajit Singh Nagar",30.76361111,76.63916667,Plastic_waste,,,India,operating_status,395,,,,,,,,
WSI-152,"Malerkotla, Malerkotla Tahsil, Sangrur",30.54666667,75.86388889,Plastic_waste,,,India,operating_status,"6,388",,,,,,,,
WSI-153,"Dinanagar, Gurdaspur Tahsil, Gurdaspur district",32.12722222,75.46916667,Plastic_waste,,,India,operating_status,"1,112",,,,,,,,
WSI-154,"Raebareli, Uttar Pradesh, 229001",26.20555556,81.27194444,Plastic_waste,,,India,operating_status,675,,,,,,,,
WSI-155,"Chowk, Faizabad, Uttar Pradesh",26.8,82.14,Plastic_waste,,,India,operating_status,755,,,,,,,,
WSI-156,"Karchhana, Prayagraj, Uttar Pradesh",25.37944444,81.80527778,Plastic_waste,,,India,operating_status,"1,841",,,,,,,,
WSI-157,"Unnao, Uttar Pradesh, 209800",26.55555556,80.52027778,Plastic_waste,,,India,operating_status,"10,551",,,,,,,,
WSI-158,"Barabanki, Nawabganj, Barabanki",26.93583333,81.21472222,Plastic_waste,,,India,operating_status,139,,,,,,,,
WSI-159,"Aurangabad, Sadar, Lucknow",26.76416667,80.90833333,Plastic_waste,,,India,operating_status,639,,,,,,,,
WSI-160,"Civil Lines, Lucknow, Sadar",26.86194444,80.97027778,Plastic_waste,,,India,operating_status,363,,,,,,,,
WSI-161,"Tankri, Bawal, Rewari District",28.07888889,76.505,Plastic_waste,,,India,operating_status,487,,,,,,,,
WSI-162,"Bawal, Rewari District, Haryana",28.08083333,76.56805556,Plastic_waste,,,India,operating_status,800,,,,,,,,
WSI-163,"Rewari, Rewari District, Haryana",28.17861111,76.60638889,Plastic_waste,,,India,operating_status,600,,,,,,,,
WSI-164,"Jai Durga Dental Hospital, SH24, Kanina Khas",28.33055556,76.30361111,Plastic_waste,,,India,operating_status,218,,,,,,,,
WSI-165,"Mahendragarh, Haryana, 123029",28.25888889,76.15722222,Plastic_waste,,,India,operating_status,451,,,,,,,,
WSI-166,"Summer Sprint PY, Asola, Sohna",28.40166667,77.17111111,Plastic_waste,,,India,operating_status,"1,361",,,,,,,,
WSI-167,"Asola, Sohna, Gurugram",28.41111111,77.13361111,Plastic_waste,,,India,operating_status,"1,003",,,,,,,,
WSI-168,"Vasant Vihar Tehsil, New Delhi, Delhi",28.53277778,77.12694444,Plastic_waste,,,India,operating_status,"8,609",,,,,,,,
WSI-169,"Sainik Farm, Tigri, Saket Tehsil",28.49888889,77.2225,Plastic_waste,,,India,operating_status,"1,050",,,,,,,,
WSI-170,"Allahbas, Dadri, Gautam Buddha Nagar",28.51861111,77.41666667,Plastic_waste,,,India,operating_status,"1,297",,,,,,,,
WSI-171,"Sector 106, Gurgaon, Gurugram",28.49805556,77.00222222,Plastic_waste,,,India,operating_status,"1,399",,,,,,,,
WSI-172,"HUDA, Sector 21, Gurgaon",28.51333333,77.07111111,Plastic_waste,,,India,operating_status,"2,395",,,,,,,,
WSI-173,"Sainik Nagar, Patel Nagar Tehsil, West Delhi",28.61583333,77.04333333,Plastic_waste,,,India,operating_status,827,,,,,,,,
WSI-174,"Pusta Road, Khajuri, Seelampur",28.68638889,77.25138889,Plastic_waste,,,India,operating_status,"5,564",,,,,,,,
WSI-175,"Sector 59, Ireo City, Sohna",28.40555556,77.10444444,Plastic_waste,,,India,operating_status,281,,,,,,,,
WSI-176,"Sector 52A, Gurgaon, Gurugram",28.43916667,77.0925,Plastic_waste,,,India,operating_status,505,,,,,,,,
WSI-177,"Pace CityII, Sector 36, Gurgaon",28.42194444,76.98944444,Plastic_waste,,,India,operating_status,"1,970",,,,,,,,
WSI-178,"Greater Noida, Gautam Buddha Nagar, Uttar Pradesh",28.50361111,77.53222222,Plastic_waste,,,India,operating_status,"3,433",,,,,,,,
WSI-179,"Punjabi Bagh Tehsil, West Delhi, Delhi",28.665,76.965,Plastic_waste,,,India,operating_status,"1,830",,,,,,,,
WSI-180,"Rohini Tehsil, North West Delhi, Delhi",28.71472222,77.08222222,Plastic_waste,,,India,operating_status,728,,,,,,,,
WSI-181,"Saraswati Vihar Tehsil, North West Delhi, Delhi",28.71416667,77.16111111,Plastic_waste,,,India,operating_status,"1,296",,,,,,,,
WSI-182,"Punjabi Bagh Tehsil, West Delhi, Delhi",28.67472222,77.13305556,Plastic_waste,,,India,operating_status,"2,015",,,,,,,,
WSI-183,"Beri, Jhajjar, Haryana",28.72916667,76.66972222,Plastic_waste,,,India,operating_status,"1,711",,,,,,,,
WSI-184,"Ghaziabad, Ghaziabad District, Uttar Pradesh",28.7025,77.44666667,Plastic_waste,,,India,operating_status,"1,141",,,,,,,,
WSI-185,"Ghaziabad, Ghaziabad District, Uttar Pradesh",28.62888889,77.35277778,Plastic_waste,,,India,operating_status,642,,,,,,,,
WSI-186,"Ghaziabad, Ghaziabad District, Uttar Pradesh",28.71611111,77.33166667,Plastic_waste,,,India,operating_status,"3,930",,,,,,,,
WSI-187,"Pataudi, Gurugram, Haryana",28.31972222,76.77472222,Plastic_waste,,,India,operating_status,"2,889",,,,,,,,
WSI-188,"Sector 1, Manesar, Gurugram",28.35666667,76.94388889,Plastic_waste,,,India,operating_status,"1,403",,,,,,,,
WSI-189,"Indiaustrial Modern Township Manesar, Manesar, Gurugram",28.3575,76.91361111,Plastic_waste,,,India,operating_status,"1,336",,,,,,,,
WSI-190,"Sector 1, Manesar, Gurugram",28.37083333,76.94722222,Plastic_waste,,,India,operating_status,948,,,,,,,,
WSI-191,"Manesar, Gurgaon, Gurugram",28.38444444,76.92944444,Plastic_waste,,,India,operating_status,792,,,,,,,,
WSI-192,"Mathura, Uttar Pradesh, 281001",27.46083333,77.71194444,Plastic_waste,,,India,operating_status,"1,907",,,,,,,,
WSI-193,"VrIndiaavan, Mathura, Uttar Pradesh",27.55611111,77.68222222,Plastic_waste,,,India,operating_status,"1,414",,,,,,,,
WSI-194,"NH148B, Bhiwani, Bhiwani district",28.78138889,76.12472222,Plastic_waste,,,India,operating_status,"3,094",,,,,,,,
WSI-195,"Rohtak, Haryana, 124001",28.87777778,76.55305556,Plastic_waste,,,India,operating_status,"9,814",,,,,,,,
WSI-196,"JIndia, Haryana, 126100",29.31055556,76.30861111,Plastic_waste,,,India,operating_status,"3,054",,,,,,,,
WSI-197,"Bareilly, Bareilly District, Uttar Pradesh",28.42472222,79.38972222,Plastic_waste,,,India,operating_status,558,,,,,,,,
WSI-198,"Pilibhit, Pilibhit District, Uttar Pradesh",28.61888889,79.79305556,Plastic_waste,,,India,operating_status,399,,,,,,,,
WSI-199,"Mainpuri, Uttar Pradesh, 205001",27.21555556,79.00861111,Plastic_waste,,,India,operating_status,685,,,,,,,,
WSI-200,"Laharpur, Sitapur, Uttar Pradesh",27.70972222,80.90305556,Plastic_waste,,,India,operating_status,330,,,,,,,,
WSI-201,"Moradabad, Uttar Pradesh, India",28.95722222,78.82444444,Plastic_waste,,,India,operating_status,"3,912",,,,,,,,
WSI-202,"Rampur, Rampur District, Uttar Pradesh",28.81527778,79.01361111,Plastic_waste,,,India,operating_status,"7,049",,,,,,,,
WSI-203,"Kashipur, Udham Singh Nagar, Uttarakhand",29.21,78.99694444,Plastic_waste,,,India,operating_status,919,,,,,,,,
WSI-204,"NH34, Etah, Uttar Pradesh",27.57916667,78.62944444,Plastic_waste,,,India,operating_status,565,,,,,,,,
WSI-205,"Abohar, Abohar Tahsil, Fazilka",30.14166667,74.18194444,Plastic_waste,,,India,operating_status,"17,116",,,,,,,,
WSI-206,"Dhalleke, Dharamkot Tahsil, Moga",30.84222222,75.14194444,Plastic_waste,,,India,operating_status,770,,,,,,,,
WSI-207,"Kapurthala, Kapurthala Tahsil, Kapurthala",31.30333333,75.33444444,Plastic_waste,,,India,operating_status,"10,907",,,,,,,,
WSI-208,"Sangaria Road, Hanumangarh, Hanumangarh Tehsil",29.64555556,74.32055556,Plastic_waste,,,India,operating_status,"1,895",,,,,,,,
WSI-209,"Focal Point - 2, BathIndiaa, BathIndiaa Tahsil",30.18194444,74.95333333,Plastic_waste,,,India,operating_status,"3,786",,,,,,,,
WSI-210,"ODR32, Giddarbaha, Gidderbaha Tahsil",30.20083333,74.67111111,Plastic_waste,,,India,operating_status,"2,080",,,,,,,,
WSI-211,"Mandi Dabwali, Dabwali, Sirsa",29.95805556,74.69,Plastic_waste,,,India,operating_status,"2,085",,,,,,,,
WSP-212,Mehmood Booti,31.60997221,74.38688278,Dumpsites,,,Pakistan,operating_status,255063.05,,,,,,,,
WSP-213,Jam Chakro,25.02819399,67.03392914,Dumpsites,,,Pakistan,operating_status,1130306.02,,,,,,,,
