{
"type": "FeatureCollection",
"name": "Brick_kilns_Uganda",
"crs": { "type": "name", "properties": { "name": "urn:ogc:def:crs:OGC:1.3:CRS84" } },
"features": [
{ "type": "Feature", "properties": { "name": "Nkozi Clays Limited - Head Office", "coordinates": { "latitude": 0.312921, "longitude": 32.58366 }, "query": "clay products in uganda", "latitude": 0.312921, "longitude": 32.58366 }, "geometry": { "type": "Point", "coordinates": [ 32.58366, 0.312921 ] } },
{ "type": "Feature", "properties": { "name": "LwezaClays Ltd", "coordinates": { "latitude": 0.22420759999999998, "longitude": 32.5424006 }, "query": "clay products in uganda", "latitude": 0.2242076, "longitude": 32.5424006 }, "geometry": { "type": "Point", "coordinates": [ 32.5424006, 0.2242076 ] } },
{ "type": "Feature", "properties": { "name": "Uganda Clays Show Room", "coordinates": { "latitude": 0.32682639999999996, "longitude": 32.6095401 }, "query": "clay products in uganda", "latitude": 0.3268264, "longitude": 32.6095401 }, "geometry": { "type": "Point", "coordinates": [ 32.6095401, 0.3268264 ] } },
{ "type": "Feature", "properties": { "name": "Unique Clays Works Limited - Oulet", "coordinates": { "latitude": 0.3809489, "longitude": 32.556326399999996 }, "query": "clay products in uganda", "latitude": 0.3809489, "longitude": 32.5563264 }, "geometry": { "type": "Point", "coordinates": [ 32.5563264, 0.3809489 ] } },
{ "type": "Feature", "properties": { "name": "Kajjansi Quality Clay Products Ltd Kajjansi", "coordinates": { "latitude": 0.22541519999999998, "longitude": 32.5540668 }, "query": "clay products in uganda", "latitude": 0.2254152, "longitude": 32.5540668 }, "geometry": { "type": "Point", "coordinates": [ 32.5540668, 0.2254152 ] } },
{ "type": "Feature", "properties": { "name": "Ssekidde Clay Products Ltd", "coordinates": { "latitude": 0.9936999999999999, "longitude": 32.75166 }, "query": "clay products in uganda", "latitude": 0.9937, "longitude": 32.75166 }, "geometry": { "type": "Point", "coordinates": [ 32.75166, 0.9937 ] } },
{ "type": "Feature", "properties": { "name": "Ssekidde Clay Products Ltd", "coordinates": { "latitude": 0.368048, "longitude": 32.622481 }, "query": "clay products in uganda", "latitude": 0.368048, "longitude": 32.622481 }, "geometry": { "type": "Point", "coordinates": [ 32.622481, 0.368048 ] } },
{ "type": "Feature", "properties": { "name": "Quality Clay Building Products", "coordinates": { "latitude": 0.3101275, "longitude": 32.5801303 }, "query": "clay products in uganda", "latitude": 0.3101275, "longitude": 32.5801303 }, "geometry": { "type": "Point", "coordinates": [ 32.5801303, 0.3101275 ] } },
{ "type": "Feature", "properties": { "name": "Uganda Clays Kajjansi", "coordinates": { "latitude": 0.2119924, "longitude": 32.539194 }, "query": "clay products in uganda", "latitude": 0.2119924, "longitude": 32.539194 }, "geometry": { "type": "Point", "coordinates": [ 32.539194, 0.2119924 ] } },
{ "type": "Feature", "properties": { "name": "Uganda Clays Ltd Ntinda", "coordinates": { "latitude": 0.3630874, "longitude": 32.6067281 }, "query": "clay products in uganda", "latitude": 0.3630874, "longitude": 32.6067281 }, "geometry": { "type": "Point", "coordinates": [ 32.6067281, 0.3630874 ] } },
{ "type": "Feature", "properties": { "name": "Unique Clay Works", "coordinates": { "latitude": 0.4014423, "longitude": 32.588311499999996 }, "query": "clay products in uganda", "latitude": 0.4014423, "longitude": 32.5883115 }, "geometry": { "type": "Point", "coordinates": [ 32.5883115, 0.4014423 ] } },
{ "type": "Feature", "properties": { "name": "One Brick at a Time Office", "coordinates": { "latitude": 0.6698288, "longitude": 30.2866029 }, "query": "brick in uganda", "latitude": 0.6698288, "longitude": 30.2866029 }, "geometry": { "type": "Point", "coordinates": [ 30.2866029, 0.6698288 ] } },
{ "type": "Feature", "properties": { "name": "Jbk mobile bricks makers", "coordinates": { "latitude": 0.3522106, "longitude": 32.554671 }, "query": "brick in uganda", "latitude": 0.3522106, "longitude": 32.554671 }, "geometry": { "type": "Point", "coordinates": [ 32.554671, 0.3522106 ] } },
{ "type": "Feature", "properties": { "name": "Brick by Brick Construction Company Ltd.", "coordinates": { "latitude": -0.3319875, "longitude": 31.7450744 }, "query": "brick in uganda", "latitude": -0.3319875, "longitude": 31.7450744 }, "geometry": { "type": "Point", "coordinates": [ 31.7450744, -0.3319875 ] } },
{ "type": "Feature", "properties": { "name": "Kajjansi Brick & Tile Works Ltd.", "coordinates": { "latitude": 0.212189, "longitude": 32.5431307 }, "query": "brick in uganda", "latitude": 0.212189, "longitude": 32.5431307 }, "geometry": { "type": "Point", "coordinates": [ 32.5431307, 0.212189 ] } },
{ "type": "Feature", "properties": { "name": "Water Brick Borehole Drilling Company Uganda", "coordinates": { "latitude": 0.30681359999999996, "longitude": 32.610991999999996 }, "query": "brick in uganda", "latitude": 0.3068136, "longitude": 32.610992 }, "geometry": { "type": "Point", "coordinates": [ 32.610992, 0.3068136 ] } },
{ "type": "Feature", "properties": { "name": "iConic Concrete Group - Uganda", "coordinates": { "latitude": 0.2413783, "longitude": 32.497841199999996 }, "query": "brick in uganda", "latitude": 0.2413783, "longitude": 32.4978412 }, "geometry": { "type": "Point", "coordinates": [ 32.4978412, 0.2413783 ] } },
{ "type": "Feature", "properties": { "name": "Pan Kajjansi Bricks", "coordinates": { "latitude": 0.3143208, "longitude": 32.5838008 }, "query": "brick in uganda", "latitude": 0.3143208, "longitude": 32.5838008 }, "geometry": { "type": "Point", "coordinates": [ 32.5838008, 0.3143208 ] } },
{ "type": "Feature", "properties": { "name": "Natural Rich International", "coordinates": { "latitude": 0.2911098, "longitude": 32.559686299999996 }, "query": "brick in uganda", "latitude": 0.2911098, "longitude": 32.5596863 }, "geometry": { "type": "Point", "coordinates": [ 32.5596863, 0.2911098 ] } },
{ "type": "Feature", "properties": { "name": "KIGO CLAYS", "coordinates": { "latitude": 0.2156689, "longitude": 32.5524173 }, "query": "brick kilns in uganda", "latitude": 0.2156689, "longitude": 32.5524173 }, "geometry": { "type": "Point", "coordinates": [ 32.5524173, 0.2156689 ] } }
]
}
