source_id,source_name,iso3_country,sector,subsector,lat,lon,geometry_ref,relationship,ultimate_parent_name,ultimate_parent_id,percent_interest_parent,company_name,company_id,percent_interest_company,interest_units,start_date,end_date,created_date,modified_date,percent_company_datasource,percent_parent_datasource
25486634,Bisie Mine,COD,mineral-extraction,copper-mining,-1.038072,27.743952,trace_27.743952_-1.038072,owner,JCHX Mining Management,100001012734.0,100.0,JCHX Mining Management,100001012734,100,copper-ore_reserves,2022-01-01 00:00:00,2022-12-31 00:00:00,2023-11-29 22:49:35.276087,,,{7061}
25486635,Deziwa Mine,COD,mineral-extraction,copper-mining,-10.785628,25.767493,trace_25.767493_-10.785628,owner,Sino-Congolaise des Mines,100001012735.0,100.0,Sino-Congolaise des Mines,100001012735,100,copper-ore_reserves,2022-01-01 00:00:00,2022-12-31 00:00:00,2023-11-29 22:49:35.276108,,,{7061}
25486636,Dikulushi Mine,COD,mineral-extraction,copper-mining,-8.89308,28.270668,trace_28.270668_-8.89308,owner,Shalina Resources,100001012736.0,100.0,Shalina Resources,100001012736,100,copper-ore_reserves,2022-01-01 00:00:00,2022-12-31 00:00:00,2023-11-29 22:49:35.27613,,,{7061}
25486637,Dikuluwe-Mashamba Complex,COD,mineral-extraction,copper-mining,-10.742402,25.369888,trace_25.369888_-10.742402,owner,Eurasian Resources Group,100000000689.0,100.0,Eurasian Resources Group,100000000689,100,copper-ore_reserves,2022-01-01 00:00:00,2022-12-31 00:00:00,2023-11-29 22:49:35.276154,,,"{6256,7061}"
25486639,Frontier Mine,COD,mineral-extraction,copper-mining,-12.73356936,28.47545856,trace_28.47545856_-12.73356936,owner,Eurasian Resources Group,100000000689.0,100.0,Eurasian Resources Group,100000000689,100,copper-ore_reserves,2022-01-01 00:00:00,2022-12-31 00:00:00,2023-11-29 22:49:35.276179,,,"{6256,7061}"
25486640,Kabolela Mine,COD,mineral-extraction,copper-mining,-10.844071,26.477366,trace_26.477366_-10.844071,owner,Ivanhoe Mines & Zijin Mining Group,100001012737.0,100.0,Ivanhoe Mines & Zijin Mining Group,100001012737,100,copper-ore_reserves,2022-01-01 00:00:00,2022-12-31 00:00:00,2023-11-29 22:49:35.276202,,,{7061}
25486642,Kakula Mine,COD,mineral-extraction,copper-mining,-10.885618,25.197363,trace_25.197363_-10.885618,owner,Eurasian Resources Group,100000000689.0,100.0,Eurasian Resources Group,100000000689,100,copper-ore_reserves,2022-01-01 00:00:00,2022-12-31 00:00:00,2023-11-29 22:49:35.276226,,,"{6256,7061}"
25486643,Kalabi Mine,COD,mineral-extraction,copper-mining,-10.78111,26.7425,trace_26.7425_-10.78111,owner,Gecamines,100000120487.0,100.0,Gecamines,100000120487,100,copper-ore_reserves,2022-01-01 00:00:00,2022-12-31 00:00:00,2023-11-29 22:49:35.276257,,,{7061}
25486644,Kalukundi Mine,COD,mineral-extraction,copper-mining,-10.623521,25.897255,trace_25.897255_-10.623521,owner,Gecamines,100000120487.0,100.0,Gecamines,100000120487,100,copper-ore_reserves,2022-01-01 00:00:00,2022-12-31 00:00:00,2023-11-29 22:49:35.276278,,,{7061}
25486645,Kamatanda Mine,COD,mineral-extraction,copper-mining,-10.9533,26.773329,trace_26.773329_-10.9533,owner,Gecamines,100000120487.0,100.0,Gecamines,100000120487,100,copper-ore_reserves,2022-01-01 00:00:00,2022-12-31 00:00:00,2023-11-29 22:49:35.276299,,,{7061}
25486646,Kambove Complex,COD,mineral-extraction,copper-mining,-10.889462,26.58187,trace_26.58187_-10.889462,owner,Gecamines,100000120487.0,100.0,Gecamines,100000120487,100,copper-ore_reserves,2022-01-01 00:00:00,2022-12-31 00:00:00,2023-11-29 22:49:35.276321,,,{7061}
25486648,Kamfundwa Mine,COD,mineral-extraction,copper-mining,-10.813865,26.590721,trace_26.590721_-10.813865,owner,Ivanhoe Mines,100001012738.0,100.0,Ivanhoe Mines,100001012738,100,copper-ore_reserves,2022-01-01 00:00:00,2022-12-31 00:00:00,2023-11-29 22:49:35.276342,,,{7061}
25486649,Kaminafitwe Mine,COD,mineral-extraction,copper-mining,-11.222759,27.135643,trace_27.135643_-11.222759,owner,Ivanhoe Mines,100001012738.0,100.0,Ivanhoe Mines,100001012738,100,copper-ore_reserves,2022-01-01 00:00:00,2022-12-31 00:00:00,2023-11-29 22:49:35.276364,,,{7061}
25486650,Kamoa Mine,COD,mineral-extraction,copper-mining,-10.807715,25.239879,trace_25.239879_-10.807715,owner,Glencore,100001000400.0,100.0,Glencore,100001000400,100,copper-ore_reserves,2022-01-01 00:00:00,2022-12-31 00:00:00,2023-11-29 22:49:35.276399,,,"{5862,7061,5864,34413,34414,34415,34416}"
25486651,Kamoa-Kakula Operation,COD,mineral-extraction,copper-mining,-10.887234,25.213584,trace_25.213584_-10.887234,owner,Glencore,100001000400.0,100.0,Glencore,100001000400,100,copper-ore_reserves,2022-01-01 00:00:00,2022-12-31 00:00:00,2023-11-29 22:49:35.276447,,,"{5862,7061,5864,34413,34414,34415,34416}"
25486652,Kamoto Mine,COD,mineral-extraction,copper-mining,-10.722333,25.401579,trace_25.401579_-10.722333,owner,Ivanhoe Mines,100001012738.0,100.0,Ivanhoe Mines,100001012738,100,copper-ore_reserves,2022-01-01 00:00:00,2022-12-31 00:00:00,2023-11-29 22:49:35.276468,,,{7061}
25486653,Kananga Mine,COD,mineral-extraction,copper-mining,-10.68754,25.459905,trace_25.459905_-10.68754,owner,Glencore,100001000400.0,100.0,Glencore,100001000400,100,copper-ore_reserves,2022-01-01 00:00:00,2022-12-31 00:00:00,2023-11-29 22:49:35.276503,,,"{5862,7061,5864,34413,34414,34415,34416}"
25486655,Kansuki Mine,COD,mineral-extraction,copper-mining,-10.73824,25.860634,trace_25.860634_-10.73824,owner,,,,Jinchuan Group International Resources,100001012739,100,copper-ore_reserves,2022-01-01 00:00:00,2022-12-31 00:00:00,2023-11-29 22:49:35.276525,,,{7061}
25486656,Kimbwe Mine,COD,mineral-extraction,copper-mining,-11.164799,27.449706,trace_27.449706_-11.164799,owner,MMG,100001012665.0,100.0,MMG,100001012665,100,copper-ore_reserves,2022-01-01 00:00:00,2022-12-31 00:00:00,2023-11-29 22:49:35.276549,,,"{7061,34412}"
25486657,Kinsenda Mine,COD,mineral-extraction,copper-mining,-12.24853,27.969394,trace_27.969394_-12.24853,owner,Tiger Resources,100001012740.0,100.0,Tiger Resources,100001012740,100,copper-ore_reserves,2022-01-01 00:00:00,2022-12-31 00:00:00,2023-11-29 22:49:35.27657,,,{7061}
25486658,Kinsevere Mine,COD,mineral-extraction,copper-mining,-11.36914566,27.56697732,trace_27.56697732_-11.36914566,owner,China Molybdenum,100001012741.0,100.0,China Molybdenum,100001012741,100,copper-ore_reserves,2022-01-01 00:00:00,2022-12-31 00:00:00,2023-11-29 22:49:35.276731,,,{7061}
25486659,Kipoi Mine,COD,mineral-extraction,copper-mining,-11.246144,27.099857,trace_27.099857_-11.246144,owner,Zijin Mining Group,100000124869.0,100.0,Zijin Mining Group,100000124869,100,copper-ore_reserves,2022-01-01 00:00:00,2022-12-31 00:00:00,2023-11-29 22:49:35.276763,,,{7061}
25486660,Kisanfu Mine,COD,mineral-extraction,copper-mining,-10.772953,25.93092,trace_25.93092_-10.772953,owner,Glencore,100001000400.0,100.0,Glencore,100001000400,100,copper-ore_reserves,2022-01-01 00:00:00,2022-12-31 00:00:00,2023-11-29 22:49:35.276798,,,"{5862,7061,5864,34413,34414,34415,34416}"
25486663,Likasi Mine,COD,mineral-extraction,copper-mining,-11.00417,26.74278,trace_26.74278_-11.00417,owner,China RAILWAY Group,100000128700.0,100.0,China RAILWAY Group,100000128700,100,copper-ore_reserves,2022-01-01 00:00:00,2022-12-31 00:00:00,2023-11-29 22:49:35.27682,,,{7061}
25486665,Luishia Mine,COD,mineral-extraction,copper-mining,-11.168114,27.004992,trace_27.004992_-11.168114,owner,China Nonferrous Metal Mining Group,100001012733.0,100.0,China Nonferrous Metal Mining Group,100001012733,100,copper-ore_reserves,2022-01-01 00:00:00,2022-12-31 00:00:00,2023-11-29 22:49:35.276842,,,{7061}
25486666,M'sesa Mine,COD,mineral-extraction,copper-mining,-10.842559,26.605138,trace_26.605138_-10.842559,owner,Glencore,100001000400.0,100.0,Glencore,100001000400,100,copper-ore_reserves,2022-01-01 00:00:00,2022-12-31 00:00:00,2023-11-29 22:49:35.276887,,,"{5862,7061,5864,34413,34414,34415,34416}"
25486668,Mashamba East Mine,COD,mineral-extraction,copper-mining,-10.743403,25.393041,trace_25.393041_-10.743403,owner,Huayou Cobalt,100001012742.0,100.0,Huayou Cobalt,100001012742,100,copper-ore_reserves,2022-01-01 00:00:00,2022-12-31 00:00:00,2023-11-29 22:49:35.276909,,,{7061}
25486669,Mashitu Mine,COD,mineral-extraction,copper-mining,-10.666449,25.906726,trace_25.906726_-10.666449,owner,Glencore,100001000400.0,100.0,Glencore,100001000400,100,copper-ore_reserves,2022-01-01 00:00:00,2022-12-31 00:00:00,2023-11-29 22:49:35.276944,,,"{5862,7061,5864,34413,34414,34415,34416}"
25486670,Mikas Mine,COD,mineral-extraction,copper-mining,-10.882907,26.611274,trace_26.611274_-10.882907,owner,China RAILWAY Group,100000128700.0,100.0,China RAILWAY Group,100000128700,100,copper-ore_reserves,2022-01-01 00:00:00,2022-12-31 00:00:00,2023-11-29 22:49:35.276966,,,{7061}
25486671,Mindingi Mine,COD,mineral-extraction,copper-mining,-11.09944,26.17722,trace_26.17722_-11.09944,owner,Eurasian Resources Group,100000000689.0,100.0,Eurasian Resources Group,100000000689,100,copper-ore_reserves,2022-01-01 00:00:00,2022-12-31 00:00:00,2023-11-29 22:49:35.27699,,,"{6256,7061}"
25486672,Miniere de Kalmbwe Myunga Mine,COD,mineral-extraction,copper-mining,-10.772926,25.909039,trace_25.909039_-10.772926,owner,Glencore,100001000400.0,100.0,Glencore,100001000400,100,copper-ore_reserves,2022-01-01 00:00:00,2022-12-31 00:00:00,2023-11-29 22:49:35.277025,,,"{5862,7061,5864,34413,34414,34415,34416}"
25486673,Mukondo Mine,COD,mineral-extraction,copper-mining,-10.724357,26.349928,trace_26.349928_-10.724357,owner,Shalini Resources,100001012743.0,100.0,Shalini Resources,100001012743,100,copper-ore_reserves,2022-01-01 00:00:00,2022-12-31 00:00:00,2023-11-29 22:49:35.277052,,,"{7061,34426,34427}"
25486674,Mutanda Mine,COD,mineral-extraction,copper-mining,-10.785812,25.813593,trace_25.813593_-10.785812,owner,,,,Jinchuan Group International Resources,100001012739,100,copper-ore_reserves,2022-01-01 00:00:00,2022-12-31 00:00:00,2023-11-29 22:49:35.277073,,,{7061}
25486676,Ruashi Mine,COD,mineral-extraction,copper-mining,-11.623431,27.547865,trace_27.547865_-11.623431,owner,Pengxin Mining,100001012744.0,100.0,Pengxin Mining,100001012744,100,copper-ore_reserves,2022-01-01 00:00:00,2022-12-31 00:00:00,2023-11-29 22:49:35.277094,,,{7061}
25486677,Shangalowe Mine,COD,mineral-extraction,copper-mining,-10.808533,26.571121,trace_26.571121_-10.808533,owner,China RAILWAY Group,100000128700.0,100.0,China RAILWAY Group,100000128700,100,copper-ore_reserves,2022-01-01 00:00:00,2022-12-31 00:00:00,2023-11-29 22:49:35.277115,,,{7061}
25486678,Shituru Mine,COD,mineral-extraction,copper-mining,-11.01472,26.76361,trace_26.76361_-11.01472,owner,CMOC Group,100001012678.0,100.0,CMOC Group,100001012678,100,copper-ore_reserves,2022-01-01 00:00:00,2022-12-31 00:00:00,2023-11-29 22:49:35.277137,,,{7061}
25486679,Sico Mine,COD,mineral-extraction,copper-mining,-10.729163,25.37627,trace_25.37627_-10.729163,owner,Glencore,100001000400.0,100.0,Glencore,100001000400,100,copper-ore_reserves,2022-01-01 00:00:00,2022-12-31 00:00:00,2023-11-29 22:49:35.277171,,,"{5862,7061,5864,34413,34414,34415,34416}"
25486680,Tenke Fungurume Mine,COD,mineral-extraction,copper-mining,-10.56343592,26.18769042,trace_26.18769042_-10.56343592,owner,Atico Mining,100001012745.0,100.0,Atico Mining,100001012745,100,copper-ore_reserves,2022-01-01 00:00:00,2022-12-31 00:00:00,2023-11-29 22:49:35.277205,,,{7061}
25486681,Tilwezembe Mine,COD,mineral-extraction,copper-mining,-10.800076,25.694543,trace_25.694543_-10.800076,owner,Hellenic Copper Mines,100001012746.0,100.0,Hellenic Copper Mines,100001012746,100,copper-ore_reserves,2022-01-01 00:00:00,2022-12-31 00:00:00,2023-11-29 22:49:35.277226,,,{7061}
