{
"type": "FeatureCollection",
"name": "waste_main",
"crs": { "type": "name", "properties": { "name": "urn:ogc:def:crs:OGC:1.3:CRS84" } },
"features": [
{ "type": "Feature", "properties": { "id": "WSB-1", "name": "OpenStreetMap Landfill", "lat": 23.79789347, "lon": 90.30034971000001, "type": "Dumpsites", "fuel": null, "region": null, "country": "Bangladesh", "status": "operating_status", "capacity": "0", "emfpm10": null, "pm10": null, "emfpm25": null, "pm25": null, "emfso2": null, "so2": null, "emfnox": null, "nox": null }, "geometry": { "type": "Point", "coordinates": [ 90.30034971, 23.79789347 ] } },
{ "type": "Feature", "properties": { "id": "WSB-2", "name": "Dinajpur, Dinajpur district, Rangpur Division", "lat": 25.63361111, "lon": 88.65861111, "type": "Plastic_waste", "fuel": null, "region": null, "country": "Bangladesh", "status": "operating_status", "capacity": "677", "emfpm10": null, "pm10": null, "emfpm25": null, "pm25": null, "emfso2": null, "so2": null, "emfnox": null, "nox": null }, "geometry": { "type": "Point", "coordinates": [ 88.65861111, 25.63361111 ] } },
{ "type": "Feature", "properties": { "id": "WSB-3", "name": "Jessore - Narail Hwy, Fatehpur, Jashore", "lat": 23.16277778, "lon": 89.24194444, "type": "Plastic_waste", "fuel": null, "region": null, "country": "Bangladesh", "status": "operating_status", "capacity": "1,020", "emfpm10": null, "pm10": null, "emfpm25": null, "pm25": null, "emfso2": null, "so2": null, "emfnox": null, "nox": null }, "geometry": { "type": "Point", "coordinates": [ 89.24194444, 23.16277778 ] } },
{ "type": "Feature", "properties": { "id": "WSB-4", "name": "Jirabo, Savar, Savar Subdistrict", "lat": 23.92277778, "lon": 90.31833333, "type": "Plastic_waste", "fuel": null, "region": null, "country": "Bangladesh", "status": "operating_status", "capacity": "666", "emfpm10": null, "pm10": null, "emfpm25": null, "pm25": null, "emfso2": null, "so2": null, "emfnox": null, "nox": null }, "geometry": { "type": "Point", "coordinates": [ 90.31833333, 23.92277778 ] } },
{ "type": "Feature", "properties": { "id": "WSB-5", "name": "Jirabo, Savar, Savar Subdistrict", "lat": 23.90777778, "lon": 90.3125, "type": "Plastic_waste", "fuel": null, "region": null, "country": "Bangladesh", "status": "operating_status", "capacity": "1,001", "emfpm10": null, "pm10": null, "emfpm25": null, "pm25": null, "emfso2": null, "so2": null, "emfnox": null, "nox": null }, "geometry": { "type": "Point", "coordinates": [ 90.3125, 23.90777778 ] } },
{ "type": "Feature", "properties": { "id": "WSB-6", "name": "Jirabo, Savar, Savar Subdistrict", "lat": 23.91638889, "lon": 90.30388889, "type": "Plastic_waste", "fuel": null, "region": null, "country": "Bangladesh", "status": "operating_status", "capacity": "89", "emfpm10": null, "pm10": null, "emfpm25": null, "pm25": null, "emfso2": null, "so2": null, "emfnox": null, "nox": null }, "geometry": { "type": "Point", "coordinates": [ 90.30388889, 23.91638889 ] } },
{ "type": "Feature", "properties": { "id": "WSB-7", "name": "Baipail, Savar, Savar Subdistrict", "lat": 23.92861111, "lon": 90.27055556000001, "type": "Plastic_waste", "fuel": null, "region": null, "country": "Bangladesh", "status": "operating_status", "capacity": "7", "emfpm10": null, "pm10": null, "emfpm25": null, "pm25": null, "emfso2": null, "so2": null, "emfnox": null, "nox": null }, "geometry": { "type": "Point", "coordinates": [ 90.27055556, 23.92861111 ] } },
{ "type": "Feature", "properties": { "id": "WSB-8", "name": "N R CNG Filling Station ?? ?? ?????? ????? ??????, Dhaka - Aricha Highway, Aminbazar", "lat": 23.79777778, "lon": 90.30111111, "type": "Plastic_waste", "fuel": null, "region": null, "country": "Bangladesh", "status": "operating_status", "capacity": "62,430", "emfpm10": null, "pm10": null, "emfpm25": null, "pm25": null, "emfso2": null, "so2": null, "emfnox": null, "nox": null }, "geometry": { "type": "Point", "coordinates": [ 90.30111111, 23.79777778 ] } },
{ "type": "Feature", "properties": { "id": "WSB-9", "name": "Keraniganj Subdistrict, Dhaka District, Dhaka Division", "lat": 23.77305556, "lon": 90.24, "type": "Plastic_waste", "fuel": null, "region": null, "country": "Bangladesh", "status": "operating_status", "capacity": "12,263", "emfpm10": null, "pm10": null, "emfpm25": null, "pm25": null, "emfso2": null, "so2": null, "emfnox": null, "nox": null }, "geometry": { "type": "Point", "coordinates": [ 90.24, 23.77305556 ] } },
{ "type": "Feature", "properties": { "id": "WSB-10", "name": "Nabinagar - Chandra Highway, Savar Subdistrict, Gazipur District", "lat": 23.98111111, "lon": 90.26111111, "type": "Plastic_waste", "fuel": null, "region": null, "country": "Bangladesh", "status": "operating_status", "capacity": "1,386", "emfpm10": null, "pm10": null, "emfpm25": null, "pm25": null, "emfso2": null, "so2": null, "emfnox": null, "nox": null }, "geometry": { "type": "Point", "coordinates": [ 90.26111111, 23.98111111 ] } },
{ "type": "Feature", "properties": { "id": "WSB-11", "name": "Nabinagar - Chandra Highway, Baipail, Sreepur", "lat": 23.97166667, "lon": 90.265, "type": "Plastic_waste", "fuel": null, "region": null, "country": "Bangladesh", "status": "operating_status", "capacity": "714", "emfpm10": null, "pm10": null, "emfpm25": null, "pm25": null, "emfso2": null, "so2": null, "emfnox": null, "nox": null }, "geometry": { "type": "Point", "coordinates": [ 90.265, 23.97166667 ] } },
{ "type": "Feature", "properties": { "id": "WSB-12", "name": "Faridpur, Faridpur Sadar, Faridpur District", "lat": 23.62277778, "lon": 89.84527778, "type": "Plastic_waste", "fuel": null, "region": null, "country": "Bangladesh", "status": "operating_status", "capacity": "2,227", "emfpm10": null, "pm10": null, "emfpm25": null, "pm25": null, "emfso2": null, "so2": null, "emfnox": null, "nox": null }, "geometry": { "type": "Point", "coordinates": [ 89.84527778, 23.62277778 ] } },
{ "type": "Feature", "properties": { "id": "WSB-13", "name": "Green Model Town, Dhaka, Dhaka Metropolitan", "lat": 23.72027778, "lon": 90.45194444000001, "type": "Plastic_waste", "fuel": null, "region": null, "country": "Bangladesh", "status": "operating_status", "capacity": "21,289", "emfpm10": null, "pm10": null, "emfpm25": null, "pm25": null, "emfso2": null, "so2": null, "emfnox": null, "nox": null }, "geometry": { "type": "Point", "coordinates": [ 90.45194444, 23.72027778 ] } },
{ "type": "Feature", "properties": { "id": "WSB-14", "name": "N404, Tangail, Tangail District", "lat": 24.27944444, "lon": 89.91861111, "type": "Plastic_waste", "fuel": null, "region": null, "country": "Bangladesh", "status": "operating_status", "capacity": "1,334", "emfpm10": null, "pm10": null, "emfpm25": null, "pm25": null, "emfso2": null, "so2": null, "emfnox": null, "nox": null }, "geometry": { "type": "Point", "coordinates": [ 89.91861111, 24.27944444 ] } },
{ "type": "Feature", "properties": { "id": "WSI-15", "name": "OpenStreetMap Landfill", "lat": 26.44879069, "lon": 80.23414917, "type": "Dumpsites", "fuel": null, "region": null, "country": "India", "status": "operating_status", "capacity": "0", "emfpm10": null, "pm10": null, "emfpm25": null, "pm25": null, "emfso2": null, "so2": null, "emfnox": null, "nox": null }, "geometry": { "type": "Point", "coordinates": [ 80.23414917, 26.44879069 ] } },
{ "type": "Feature", "properties": { "id": "WSI-16", "name": "OpenStreetMap Landfill", "lat": 28.51897629, "lon": 77.31985554000001, "type": "Dumpsites", "fuel": null, "region": null, "country": "India", "status": "operating_status", "capacity": "0", "emfpm10": null, "pm10": null, "emfpm25": null, "pm25": null, "emfso2": null, "so2": null, "emfnox": null, "nox": null }, "geometry": { "type": "Point", "coordinates": [ 77.31985554, 28.51897629 ] } },
{ "type": "Feature", "properties": { "id": "WSI-17", "name": "Mandi Dabwali, Dabwali, Sirsa", "lat": 29.95810865, "lon": 74.69024591, "type": "Dumpsites", "fuel": null, "region": null, "country": "India", "status": "operating_status", "capacity": "2085.05", "emfpm10": null, "pm10": null, "emfpm25": null, "pm25": null, "emfso2": null, "so2": null, "emfnox": null, "nox": null }, "geometry": { "type": "Point", "coordinates": [ 74.69024591, 29.95810865 ] } },
{ "type": "Feature", "properties": { "id": "WSI-18", "name": "OpenStreetMap Landfill", "lat": 25.21651689, "lon": 87.57223101, "type": "Dumpsites", "fuel": null, "region": null, "country": "India", "status": "operating_status", "capacity": "0", "emfpm10": null, "pm10": null, "emfpm25": null, "pm25": null, "emfso2": null, "so2": null, "emfnox": null, "nox": null }, "geometry": { "type": "Point", "coordinates": [ 87.57223101, 25.21651689 ] } },
{ "type": "Feature", "properties": { "id": "WSI-19", "name": "OpenStreetMap Landfill", "lat": 25.19760546, "lon": 87.66314084, "type": "Dumpsites", "fuel": null, "region": null, "country": "India", "status": "operating_status", "capacity": "0", "emfpm10": null, "pm10": null, "emfpm25": null, "pm25": null, "emfso2": null, "so2": null, "emfnox": null, "nox": null }, "geometry": { "type": "Point", "coordinates": [ 87.66314084, 25.19760546 ] } },
{ "type": "Feature", "properties": { "id": "WSI-20", "name": "Gp Block, Bhangar - Ii, South 24 Parganas", "lat": 22.56436129, "lon": 88.44814159000001, "type": "Dumpsites", "fuel": null, "region": null, "country": "India", "status": "operating_status", "capacity": "39800.24", "emfpm10": null, "pm10": null, "emfpm25": null, "pm25": null, "emfso2": null, "so2": null, "emfnox": null, "nox": null }, "geometry": { "type": "Point", "coordinates": [ 88.44814159, 22.56436129 ] } },
{ "type": "Feature", "properties": { "id": "WSI-21", "name": "Abohar, Abohar Tahsil, Fazilka", "lat": 30.14190134, "lon": 74.18220034, "type": "Dumpsites", "fuel": null, "region": null, "country": "India", "status": "operating_status", "capacity": "17116.26", "emfpm10": null, "pm10": null, "emfpm25": null, "pm25": null, "emfso2": null, "so2": null, "emfnox": null, "nox": null }, "geometry": { "type": "Point", "coordinates": [ 74.18220034, 30.14190134 ] } },
{ "type": "Feature", "properties": { "id": "WSI-22", "name": "Foster Supermarket, E331, Indiaustrial Area", "lat": 30.7096419, "lon": 76.68254875, "type": "Dumpsites", "fuel": null, "region": null, "country": "India", "status": "operating_status", "capacity": "13429.59", "emfpm10": null, "pm10": null, "emfpm25": null, "pm25": null, "emfso2": null, "so2": null, "emfnox": null, "nox": null }, "geometry": { "type": "Point", "coordinates": [ 76.68254875, 30.7096419 ] } },
{ "type": "Feature", "properties": { "id": "WSI-23", "name": "Meerut-Karnal Marg, Mirgain, Karnal", "lat": 29.64379324, "lon": 77.04850677, "type": "Dumpsites", "fuel": null, "region": null, "country": "India", "status": "operating_status", "capacity": "12127.42", "emfpm10": null, "pm10": null, "emfpm25": null, "pm25": null, "emfso2": null, "so2": null, "emfnox": null, "nox": null }, "geometry": { "type": "Point", "coordinates": [ 77.04850677, 29.64379324 ] } },
{ "type": "Feature", "properties": { "id": "WSI-24", "name": "Kapurthala, Kapurthala Tahsil, Kapurthala", "lat": 31.3034239, "lon": 75.33469581, "type": "Dumpsites", "fuel": null, "region": null, "country": "India", "status": "operating_status", "capacity": "10907.1", "emfpm10": null, "pm10": null, "emfpm25": null, "pm25": null, "emfso2": null, "so2": null, "emfnox": null, "nox": null }, "geometry": { "type": "Point", "coordinates": [ 75.33469581, 31.3034239 ] } },
{ "type": "Feature", "properties": { "id": "WSI-25", "name": "Unnao, Uttar Pradesh, 209800", "lat": 26.55583075, "lon": 80.52041636, "type": "Dumpsites", "fuel": null, "region": null, "country": "India", "status": "operating_status", "capacity": "10551.31", "emfpm10": null, "pm10": null, "emfpm25": null, "pm25": null, "emfso2": null, "so2": null, "emfnox": null, "nox": null }, "geometry": { "type": "Point", "coordinates": [ 80.52041636, 26.55583075 ] } },
{ "type": "Feature", "properties": { "id": "WSI-26", "name": "Ward 26, Kishangarh, Chandigarh", "lat": 30.72353969, "lon": 76.82761512, "type": "Dumpsites", "fuel": null, "region": null, "country": "India", "status": "operating_status", "capacity": "9975.37", "emfpm10": null, "pm10": null, "emfpm25": null, "pm25": null, "emfso2": null, "so2": null, "emfnox": null, "nox": null }, "geometry": { "type": "Point", "coordinates": [ 76.82761512, 30.72353969 ] } },
{ "type": "Feature", "properties": { "id": "WSI-27", "name": "Rohtak, Haryana, 124001", "lat": 28.87792439, "lon": 76.55313974000001, "type": "Dumpsites", "fuel": null, "region": null, "country": "India", "status": "operating_status", "capacity": "9814.31", "emfpm10": null, "pm10": null, "emfpm25": null, "pm25": null, "emfso2": null, "so2": null, "emfnox": null, "nox": null }, "geometry": { "type": "Point", "coordinates": [ 76.55313974, 28.87792439 ] } },
{ "type": "Feature", "properties": { "id": "WSI-28", "name": "Vasant Vihar Tehsil, New Delhi, Delhi", "lat": 28.53300998, "lon": 77.12715138, "type": "Dumpsites", "fuel": null, "region": null, "country": "India", "status": "operating_status", "capacity": "8609.42", "emfpm10": null, "pm10": null, "emfpm25": null, "pm25": null, "emfso2": null, "so2": null, "emfnox": null, "nox": null }, "geometry": { "type": "Point", "coordinates": [ 77.12715138, 28.53300998 ] } },
{ "type": "Feature", "properties": { "id": "WSI-29", "name": "Rampur, Rampur District, Uttar Pradesh", "lat": 28.81545817, "lon": 79.01362708000001, "type": "Dumpsites", "fuel": null, "region": null, "country": "India", "status": "operating_status", "capacity": "7049.62", "emfpm10": null, "pm10": null, "emfpm25": null, "pm25": null, "emfso2": null, "so2": null, "emfnox": null, "nox": null }, "geometry": { "type": "Point", "coordinates": [ 79.01362708, 28.81545817 ] } },
{ "type": "Feature", "properties": { "id": "WSI-30", "name": "Malerkotla, Malerkotla Tahsil, Sangrur", "lat": 30.54683251, "lon": 75.86407871, "type": "Dumpsites", "fuel": null, "region": null, "country": "India", "status": "operating_status", "capacity": "6388.41", "emfpm10": null, "pm10": null, "emfpm25": null, "pm25": null, "emfso2": null, "so2": null, "emfnox": null, "nox": null }, "geometry": { "type": "Point", "coordinates": [ 75.86407871, 30.54683251 ] } },
{ "type": "Feature", "properties": { "id": "WSI-31", "name": "Midnapore, Paschim Medinipur, West Bengal", "lat": 22.42226153, "lon": 87.34100419000001, "type": "Dumpsites", "fuel": null, "region": null, "country": "India", "status": "operating_status", "capacity": "5944.86", "emfpm10": null, "pm10": null, "emfpm25": null, "pm25": null, "emfso2": null, "so2": null, "emfnox": null, "nox": null }, "geometry": { "type": "Point", "coordinates": [ 87.34100419, 22.42226153 ] } },
{ "type": "Feature", "properties": { "id": "WSI-32", "name": "Jaggadal, Barrackpur - I, North 24 Parganas", "lat": 22.85974773, "lon": 88.38814378, "type": "Dumpsites", "fuel": null, "region": null, "country": "India", "status": "operating_status", "capacity": "5622.01", "emfpm10": null, "pm10": null, "emfpm25": null, "pm25": null, "emfso2": null, "so2": null, "emfnox": null, "nox": null }, "geometry": { "type": "Point", "coordinates": [ 88.38814378, 22.85974773 ] } },
{ "type": "Feature", "properties": { "id": "WSI-33", "name": "Pusta Road, Khajuri, Seelampur", "lat": 28.68659361, "lon": 77.25154256, "type": "Dumpsites", "fuel": null, "region": null, "country": "India", "status": "operating_status", "capacity": "5564.89", "emfpm10": null, "pm10": null, "emfpm25": null, "pm25": null, "emfso2": null, "so2": null, "emfnox": null, "nox": null }, "geometry": { "type": "Point", "coordinates": [ 77.25154256, 28.68659361 ] } },
{ "type": "Feature", "properties": { "id": "WSI-34", "name": "Bolpur Nursing Home, Nh114, Shantiniketan", "lat": 23.68078131, "lon": 87.72247489, "type": "Dumpsites", "fuel": null, "region": null, "country": "India", "status": "operating_status", "capacity": "5150.17", "emfpm10": null, "pm10": null, "emfpm25": null, "pm25": null, "emfso2": null, "so2": null, "emfnox": null, "nox": null }, "geometry": { "type": "Point", "coordinates": [ 87.72247489, 23.68078131 ] } },
{ "type": "Feature", "properties": { "id": "WSI-35", "name": "Digha Contai Road, Contai, Contai-I", "lat": 21.76500681, "lon": 87.73044549, "type": "Dumpsites", "fuel": null, "region": null, "country": "India", "status": "operating_status", "capacity": "5135.43", "emfpm10": null, "pm10": null, "emfpm25": null, "pm25": null, "emfso2": null, "so2": null, "emfnox": null, "nox": null }, "geometry": { "type": "Point", "coordinates": [ 87.73044549, 21.76500681 ] } },
{ "type": "Feature", "properties": { "id": "WSI-36", "name": "Badu, Barasat - Ii, North 24 Parganas", "lat": 22.69162163, "lon": 88.50129819, "type": "Dumpsites", "fuel": null, "region": null, "country": "India", "status": "operating_status", "capacity": "4450.4", "emfpm10": null, "pm10": null, "emfpm25": null, "pm25": null, "emfso2": null, "so2": null, "emfnox": null, "nox": null }, "geometry": { "type": "Point", "coordinates": [ 88.50129819, 22.69162163 ] } },
{ "type": "Feature", "properties": { "id": "WSI-37", "name": "Ghaziabad, Ghaziabad District, Uttar Pradesh", "lat": 28.71638544, "lon": 77.33186136, "type": "Dumpsites", "fuel": null, "region": null, "country": "India", "status": "operating_status", "capacity": "3930.69", "emfpm10": null, "pm10": null, "emfpm25": null, "pm25": null, "emfso2": null, "so2": null, "emfnox": null, "nox": null }, "geometry": { "type": "Point", "coordinates": [ 77.33186136, 28.71638544 ] } },
{ "type": "Feature", "properties": { "id": "WSI-38", "name": "Moradabad, Uttar Pradesh, India", "lat": 28.95735376, "lon": 78.82445639, "type": "Dumpsites", "fuel": null, "region": null, "country": "India", "status": "operating_status", "capacity": "3912.61", "emfpm10": null, "pm10": null, "emfpm25": null, "pm25": null, "emfso2": null, "so2": null, "emfnox": null, "nox": null }, "geometry": { "type": "Point", "coordinates": [ 78.82445639, 28.95735376 ] } },
{ "type": "Feature", "properties": { "id": "WSI-39", "name": "Focal Point - 2, BathIndiaa, BathIndiaa Tahsil", "lat": 30.18218857, "lon": 74.95338329, "type": "Dumpsites", "fuel": null, "region": null, "country": "India", "status": "operating_status", "capacity": "3786.85", "emfpm10": null, "pm10": null, "emfpm25": null, "pm25": null, "emfso2": null, "so2": null, "emfnox": null, "nox": null }, "geometry": { "type": "Point", "coordinates": [ 74.95338329, 30.18218857 ] } },
{ "type": "Feature", "properties": { "id": "WSI-40", "name": "Greater Noida, Gautam Buddha Nagar, Uttar Pradesh", "lat": 28.50383771, "lon": 77.53238781, "type": "Dumpsites", "fuel": null, "region": null, "country": "India", "status": "operating_status", "capacity": "3433.05", "emfpm10": null, "pm10": null, "emfpm25": null, "pm25": null, "emfso2": null, "so2": null, "emfnox": null, "nox": null }, "geometry": { "type": "Point", "coordinates": [ 77.53238781, 28.50383771 ] } },
{ "type": "Feature", "properties": { "id": "WSI-41", "name": "Bally, Bally Jagachha, Howrah", "lat": 22.63566759, "lon": 88.33412936000001, "type": "Dumpsites", "fuel": null, "region": null, "country": "India", "status": "operating_status", "capacity": "3308.05", "emfpm10": null, "pm10": null, "emfpm25": null, "pm25": null, "emfso2": null, "so2": null, "emfnox": null, "nox": null }, "geometry": { "type": "Point", "coordinates": [ 88.33412936, 22.63566759 ] } },
{ "type": "Feature", "properties": { "id": "WSI-42", "name": "Sampatchak, Patna District, Bihar", "lat": 25.56613117, "lon": 85.17826957, "type": "Dumpsites", "fuel": null, "region": null, "country": "India", "status": "operating_status", "capacity": "3272.18", "emfpm10": null, "pm10": null, "emfpm25": null, "pm25": null, "emfso2": null, "so2": null, "emfnox": null, "nox": null }, "geometry": { "type": "Point", "coordinates": [ 85.17826957, 25.56613117 ] } },
{ "type": "Feature", "properties": { "id": "WSI-43", "name": "Nh148B, Bhiwani, Bhiwani District", "lat": 28.78139259, "lon": 76.12473191, "type": "Dumpsites", "fuel": null, "region": null, "country": "India", "status": "operating_status", "capacity": "3094.73", "emfpm10": null, "pm10": null, "emfpm25": null, "pm25": null, "emfso2": null, "so2": null, "emfnox": null, "nox": null }, "geometry": { "type": "Point", "coordinates": [ 76.12473191, 28.78139259 ] } },
{ "type": "Feature", "properties": { "id": "WSI-44", "name": "JIndia, Haryana, 126100", "lat": 29.31059128, "lon": 76.30886403, "type": "Dumpsites", "fuel": null, "region": null, "country": "India", "status": "operating_status", "capacity": "3054.08", "emfpm10": null, "pm10": null, "emfpm25": null, "pm25": null, "emfso2": null, "so2": null, "emfnox": null, "nox": null }, "geometry": { "type": "Point", "coordinates": [ 76.30886403, 29.31059128 ] } },
{ "type": "Feature", "properties": { "id": "WSI-45", "name": "Barasat, Barasat - I, North 24 Parganas", "lat": 22.70557997, "lon": 88.51867675, "type": "Dumpsites", "fuel": null, "region": null, "country": "India", "status": "operating_status", "capacity": "3030.07", "emfpm10": null, "pm10": null, "emfpm25": null, "pm25": null, "emfso2": null, "so2": null, "emfnox": null, "nox": null }, "geometry": { "type": "Point", "coordinates": [ 88.51867675, 22.70557997 ] } },
{ "type": "Feature", "properties": { "id": "WSI-46", "name": "Pataudi, Gurugram, Haryana", "lat": 28.31978981, "lon": 76.77482781000001, "type": "Dumpsites", "fuel": null, "region": null, "country": "India", "status": "operating_status", "capacity": "2889.22", "emfpm10": null, "pm10": null, "emfpm25": null, "pm25": null, "emfso2": null, "so2": null, "emfnox": null, "nox": null }, "geometry": { "type": "Point", "coordinates": [ 76.77482781, 28.31978981 ] } },
{ "type": "Feature", "properties": { "id": "WSI-47", "name": "Naihati, Barrackpur - I, North 24 Parganas", "lat": 22.89544859, "lon": 88.41081914, "type": "Dumpsites", "fuel": null, "region": null, "country": "India", "status": "operating_status", "capacity": "2660.59", "emfpm10": null, "pm10": null, "emfpm25": null, "pm25": null, "emfso2": null, "so2": null, "emfnox": null, "nox": null }, "geometry": { "type": "Point", "coordinates": [ 88.41081914, 22.89544859 ] } },
{ "type": "Feature", "properties": { "id": "WSI-48", "name": "Rampurhat, Rampurhat - I, Birbhum", "lat": 24.18793289, "lon": 87.75696494, "type": "Dumpsites", "fuel": null, "region": null, "country": "India", "status": "operating_status", "capacity": "2545.59", "emfpm10": null, "pm10": null, "emfpm25": null, "pm25": null, "emfso2": null, "so2": null, "emfnox": null, "nox": null }, "geometry": { "type": "Point", "coordinates": [ 87.75696494, 24.18793289 ] } },
{ "type": "Feature", "properties": { "id": "WSI-49", "name": "Uttarpara Kotrung, Serampur Uttarpara, Hugli", "lat": 22.66676764, "lon": 88.33539588, "type": "Dumpsites", "fuel": null, "region": null, "country": "India", "status": "operating_status", "capacity": "2451.52", "emfpm10": null, "pm10": null, "emfpm25": null, "pm25": null, "emfso2": null, "so2": null, "emfnox": null, "nox": null }, "geometry": { "type": "Point", "coordinates": [ 88.33539588, 22.66676764 ] } },
{ "type": "Feature", "properties": { "id": "WSI-50", "name": "Huda, Sector 21, Gurgaon", "lat": 28.51334106, "lon": 77.07111936, "type": "Dumpsites", "fuel": null, "region": null, "country": "India", "status": "operating_status", "capacity": "2395.25", "emfpm10": null, "pm10": null, "emfpm25": null, "pm25": null, "emfso2": null, "so2": null, "emfnox": null, "nox": null }, "geometry": { "type": "Point", "coordinates": [ 77.07111936, 28.51334106 ] } },
{ "type": "Feature", "properties": { "id": "WSI-51", "name": "Maheshtala, Thakurpukur Maheshtala, South 24 Parganas", "lat": 22.49296663, "lon": 88.20559455, "type": "Dumpsites", "fuel": null, "region": null, "country": "India", "status": "operating_status", "capacity": "2294.27", "emfpm10": null, "pm10": null, "emfpm25": null, "pm25": null, "emfso2": null, "so2": null, "emfnox": null, "nox": null }, "geometry": { "type": "Point", "coordinates": [ 88.20559455, 22.49296663 ] } },
{ "type": "Feature", "properties": { "id": "WSI-52", "name": "Sonipat, Haryana, 131001", "lat": 29.03573952, "lon": 77.05928298000001, "type": "Dumpsites", "fuel": null, "region": null, "country": "India", "status": "operating_status", "capacity": "2284.79", "emfpm10": null, "pm10": null, "emfpm25": null, "pm25": null, "emfso2": null, "so2": null, "emfnox": null, "nox": null }, "geometry": { "type": "Point", "coordinates": [ 77.05928298, 29.03573952 ] } },
{ "type": "Feature", "properties": { "id": "WSI-53", "name": "Krishnanagar City, Krishnanagar, Krishnagar-I", "lat": 23.4052008, "lon": 88.51160004, "type": "Dumpsites", "fuel": null, "region": null, "country": "India", "status": "operating_status", "capacity": "2187.08", "emfpm10": null, "pm10": null, "emfpm25": null, "pm25": null, "emfso2": null, "so2": null, "emfnox": null, "nox": null }, "geometry": { "type": "Point", "coordinates": [ 88.51160004, 23.4052008 ] } },
{ "type": "Feature", "properties": { "id": "WSI-54", "name": "Mandi Dabwali, Dabwali, Sirsa", "lat": 29.95810865, "lon": 74.69024591, "type": "Dumpsites", "fuel": null, "region": null, "country": "India", "status": "operating_status", "capacity": "2085.05", "emfpm10": null, "pm10": null, "emfpm25": null, "pm25": null, "emfso2": null, "so2": null, "emfnox": null, "nox": null }, "geometry": { "type": "Point", "coordinates": [ 74.69024591, 29.95810865 ] } },
{ "type": "Feature", "properties": { "id": "WSI-55", "name": "Odr32, Giddarbaha, Gidderbaha Tahsil", "lat": 30.20093596, "lon": 74.67135303000001, "type": "Dumpsites", "fuel": null, "region": null, "country": "India", "status": "operating_status", "capacity": "2080.96", "emfpm10": null, "pm10": null, "emfpm25": null, "pm25": null, "emfso2": null, "so2": null, "emfnox": null, "nox": null }, "geometry": { "type": "Point", "coordinates": [ 74.67135303, 30.20093596 ] } },
{ "type": "Feature", "properties": { "id": "WSI-56", "name": "Punjabi Bagh Tehsil, West Delhi, Delhi", "lat": 28.67499067, "lon": 77.13314799, "type": "Dumpsites", "fuel": null, "region": null, "country": "India", "status": "operating_status", "capacity": "2015.54", "emfpm10": null, "pm10": null, "emfpm25": null, "pm25": null, "emfso2": null, "so2": null, "emfnox": null, "nox": null }, "geometry": { "type": "Point", "coordinates": [ 77.13314799, 28.67499067 ] } },
{ "type": "Feature", "properties": { "id": "WSI-57", "name": "Jiaganj, Murshidabad Jiaganj, Murshidabad", "lat": 24.22637587, "lon": 88.26787871000001, "type": "Dumpsites", "fuel": null, "region": null, "country": "India", "status": "operating_status", "capacity": "1997.27", "emfpm10": null, "pm10": null, "emfpm25": null, "pm25": null, "emfso2": null, "so2": null, "emfnox": null, "nox": null }, "geometry": { "type": "Point", "coordinates": [ 88.26787871, 24.22637587 ] } },
{ "type": "Feature", "properties": { "id": "WSI-58", "name": "Pace Cityii, Sector 36, Gurgaon", "lat": 28.42215076, "lon": 76.98963273, "type": "Dumpsites", "fuel": null, "region": null, "country": "India", "status": "operating_status", "capacity": "1970.05", "emfpm10": null, "pm10": null, "emfpm25": null, "pm25": null, "emfso2": null, "so2": null, "emfnox": null, "nox": null }, "geometry": { "type": "Point", "coordinates": [ 76.98963273, 28.42215076 ] } },
{ "type": "Feature", "properties": { "id": "WSI-59", "name": "Mathura, Uttar Pradesh, 281001", "lat": 27.46103174, "lon": 77.71197512000001, "type": "Dumpsites", "fuel": null, "region": null, "country": "India", "status": "operating_status", "capacity": "1907.83", "emfpm10": null, "pm10": null, "emfpm25": null, "pm25": null, "emfso2": null, "so2": null, "emfnox": null, "nox": null }, "geometry": { "type": "Point", "coordinates": [ 77.71197512, 27.46103174 ] } },
{ "type": "Feature", "properties": { "id": "WSI-60", "name": "Bahraich, Uttar Pradesh, 271801", "lat": 27.58906285, "lon": 81.60109226, "type": "Dumpsites", "fuel": null, "region": null, "country": "India", "status": "operating_status", "capacity": "1900.16", "emfpm10": null, "pm10": null, "emfpm25": null, "pm25": null, "emfso2": null, "so2": null, "emfnox": null, "nox": null }, "geometry": { "type": "Point", "coordinates": [ 81.60109226, 27.58906285 ] } },
{ "type": "Feature", "properties": { "id": "WSI-61", "name": "Sangaria Road, Hanumangarh, Hanumangarh Tehsil", "lat": 29.64560192, "lon": 74.32062937000001, "type": "Dumpsites", "fuel": null, "region": null, "country": "India", "status": "operating_status", "capacity": "1895.17", "emfpm10": null, "pm10": null, "emfpm25": null, "pm25": null, "emfso2": null, "so2": null, "emfnox": null, "nox": null }, "geometry": { "type": "Point", "coordinates": [ 74.32062937, 29.64560192 ] } },
{ "type": "Feature", "properties": { "id": "WSI-62", "name": "Sh4, Ghatal, Paschim Medinipur", "lat": 22.6636132, "lon": 87.72401224, "type": "Dumpsites", "fuel": null, "region": null, "country": "India", "status": "operating_status", "capacity": "1845.61", "emfpm10": null, "pm10": null, "emfpm25": null, "pm25": null, "emfso2": null, "so2": null, "emfnox": null, "nox": null }, "geometry": { "type": "Point", "coordinates": [ 87.72401224, 22.6636132 ] } },
{ "type": "Feature", "properties": { "id": "WSI-63", "name": "Karchhana, Prayagraj, Uttar Pradesh", "lat": 25.37967539, "lon": 81.80538019, "type": "Dumpsites", "fuel": null, "region": null, "country": "India", "status": "operating_status", "capacity": "1841.6", "emfpm10": null, "pm10": null, "emfpm25": null, "pm25": null, "emfso2": null, "so2": null, "emfnox": null, "nox": null }, "geometry": { "type": "Point", "coordinates": [ 81.80538019, 25.37967539 ] } },
{ "type": "Feature", "properties": { "id": "WSI-64", "name": "Punjabi Bagh Tehsil, West Delhi, Delhi", "lat": 28.66519482, "lon": 76.96512235, "type": "Dumpsites", "fuel": null, "region": null, "country": "India", "status": "operating_status", "capacity": "1830.94", "emfpm10": null, "pm10": null, "emfpm25": null, "pm25": null, "emfso2": null, "so2": null, "emfnox": null, "nox": null }, "geometry": { "type": "Point", "coordinates": [ 76.96512235, 28.66519482 ] } },
{ "type": "Feature", "properties": { "id": "WSI-65", "name": "Nilgunj Road, Kamarhati, Barrackpur - Ii", "lat": 22.67868228, "lon": 88.38005235, "type": "Dumpsites", "fuel": null, "region": null, "country": "India", "status": "operating_status", "capacity": "1769.87", "emfpm10": null, "pm10": null, "emfpm25": null, "pm25": null, "emfso2": null, "so2": null, "emfnox": null, "nox": null }, "geometry": { "type": "Point", "coordinates": [ 88.38005235, 22.67868228 ] } },
{ "type": "Feature", "properties": { "id": "WSI-66", "name": "Beltala, Barrackpore, Barrackpur - Ii", "lat": 22.74902429, "lon": 88.38258201, "type": "Dumpsites", "fuel": null, "region": null, "country": "India", "status": "operating_status", "capacity": "1743.27", "emfpm10": null, "pm10": null, "emfpm25": null, "pm25": null, "emfso2": null, "so2": null, "emfnox": null, "nox": null }, "geometry": { "type": "Point", "coordinates": [ 88.38258201, 22.74902429 ] } },
{ "type": "Feature", "properties": { "id": "WSI-67", "name": "Sardar Bazar, Barrackpore, Barrackpur - Ii", "lat": 22.77032703, "lon": 88.33791195000001, "type": "Dumpsites", "fuel": null, "region": null, "country": "India", "status": "operating_status", "capacity": "1733.75", "emfpm10": null, "pm10": null, "emfpm25": null, "pm25": null, "emfso2": null, "so2": null, "emfnox": null, "nox": null }, "geometry": { "type": "Point", "coordinates": [ 88.33791195, 22.77032703 ] } },
{ "type": "Feature", "properties": { "id": "WSI-68", "name": "Beri, Jhajjar, Haryana", "lat": 28.72929232, "lon": 76.66983733, "type": "Dumpsites", "fuel": null, "region": null, "country": "India", "status": "operating_status", "capacity": "1711.58", "emfpm10": null, "pm10": null, "emfpm25": null, "pm25": null, "emfso2": null, "so2": null, "emfnox": null, "nox": null }, "geometry": { "type": "Point", "coordinates": [ 76.66983733, 28.72929232 ] } },
{ "type": "Feature", "properties": { "id": "WSI-69", "name": "Baraut, Baghpat, Uttar Pradesh", "lat": 29.08527477, "lon": 77.25855577, "type": "Dumpsites", "fuel": null, "region": null, "country": "India", "status": "operating_status", "capacity": "1685.62", "emfpm10": null, "pm10": null, "emfpm25": null, "pm25": null, "emfso2": null, "so2": null, "emfnox": null, "nox": null }, "geometry": { "type": "Point", "coordinates": [ 77.25855577, 29.08527477 ] } },
{ "type": "Feature", "properties": { "id": "WSI-70", "name": "Howrah, Haora, Howrah", "lat": 22.61039609, "lon": 88.32622551, "type": "Dumpsites", "fuel": null, "region": null, "country": "India", "status": "operating_status", "capacity": "1660.05", "emfpm10": null, "pm10": null, "emfpm25": null, "pm25": null, "emfso2": null, "so2": null, "emfnox": null, "nox": null }, "geometry": { "type": "Point", "coordinates": [ 88.32622551, 22.61039609 ] } },
{ "type": "Feature", "properties": { "id": "WSI-71", "name": "Sodepur, Panihati, Barrackpur - Ii", "lat": 22.69176963, "lon": 88.38586895, "type": "Dumpsites", "fuel": null, "region": null, "country": "India", "status": "operating_status", "capacity": "1484.07", "emfpm10": null, "pm10": null, "emfpm25": null, "pm25": null, "emfso2": null, "so2": null, "emfnox": null, "nox": null }, "geometry": { "type": "Point", "coordinates": [ 88.38586895, 22.69176963 ] } },
{ "type": "Feature", "properties": { "id": "WSI-72", "name": "Barharganj, Nh730, Padrauna", "lat": 26.9241593, "lon": 83.92082686000001, "type": "Dumpsites", "fuel": null, "region": null, "country": "India", "status": "operating_status", "capacity": "1455.54", "emfpm10": null, "pm10": null, "emfpm25": null, "pm25": null, "emfso2": null, "so2": null, "emfnox": null, "nox": null }, "geometry": { "type": "Point", "coordinates": [ 83.92082686, 26.9241593 ] } },
{ "type": "Feature", "properties": { "id": "WSI-73", "name": "VrIndiaavan, Mathura, Uttar Pradesh", "lat": 27.55622174, "lon": 77.68235353, "type": "Dumpsites", "fuel": null, "region": null, "country": "India", "status": "operating_status", "capacity": "1414.12", "emfpm10": null, "pm10": null, "emfpm25": null, "pm25": null, "emfso2": null, "so2": null, "emfnox": null, "nox": null }, "geometry": { "type": "Point", "coordinates": [ 77.68235353, 27.55622174 ] } },
{ "type": "Feature", "properties": { "id": "WSI-74", "name": "Sector 1, Manesar, Gurugram", "lat": 28.35673244, "lon": 76.94389226, "type": "Dumpsites", "fuel": null, "region": null, "country": "India", "status": "operating_status", "capacity": "1403.98", "emfpm10": null, "pm10": null, "emfpm25": null, "pm25": null, "emfso2": null, "so2": null, "emfnox": null, "nox": null }, "geometry": { "type": "Point", "coordinates": [ 76.94389226, 28.35673244 ] } },
{ "type": "Feature", "properties": { "id": "WSI-75", "name": "Sector 106, Gurgaon, Gurugram", "lat": 28.49832618, "lon": 77.00233295, "type": "Dumpsites", "fuel": null, "region": null, "country": "India", "status": "operating_status", "capacity": "1399.35", "emfpm10": null, "pm10": null, "emfpm25": null, "pm25": null, "emfso2": null, "so2": null, "emfnox": null, "nox": null }, "geometry": { "type": "Point", "coordinates": [ 77.00233295, 28.49832618 ] } },
{ "type": "Feature", "properties": { "id": "WSI-76", "name": "Summer Sprint Py, Asola, Sohna", "lat": 28.40184662, "lon": 77.17115072, "type": "Dumpsites", "fuel": null, "region": null, "country": "India", "status": "operating_status", "capacity": "1361.51", "emfpm10": null, "pm10": null, "emfpm25": null, "pm25": null, "emfso2": null, "so2": null, "emfnox": null, "nox": null }, "geometry": { "type": "Point", "coordinates": [ 77.17115072, 28.40184662 ] } },
{ "type": "Feature", "properties": { "id": "WSI-77", "name": "Indiaustrial Modern Township Manesar, Manesar, Gurugram", "lat": 28.35770798, "lon": 76.91378948000001, "type": "Dumpsites", "fuel": null, "region": null, "country": "India", "status": "operating_status", "capacity": "1336.57", "emfpm10": null, "pm10": null, "emfpm25": null, "pm25": null, "emfso2": null, "so2": null, "emfnox": null, "nox": null }, "geometry": { "type": "Point", "coordinates": [ 76.91378948, 28.35770798 ] } },
{ "type": "Feature", "properties": { "id": "WSI-78", "name": "Allahbas, Dadri, Gautam Buddha Nagar", "lat": 28.5187239, "lon": 77.41689754, "type": "Dumpsites", "fuel": null, "region": null, "country": "India", "status": "operating_status", "capacity": "1297.23", "emfpm10": null, "pm10": null, "emfpm25": null, "pm25": null, "emfso2": null, "so2": null, "emfnox": null, "nox": null }, "geometry": { "type": "Point", "coordinates": [ 77.41689754, 28.5187239 ] } },
{ "type": "Feature", "properties": { "id": "WSI-79", "name": "Saraswati Vihar Tehsil, North West Delhi, Delhi", "lat": 28.71425499, "lon": 77.16136969, "type": "Dumpsites", "fuel": null, "region": null, "country": "India", "status": "operating_status", "capacity": "1296.13", "emfpm10": null, "pm10": null, "emfpm25": null, "pm25": null, "emfso2": null, "so2": null, "emfnox": null, "nox": null }, "geometry": { "type": "Point", "coordinates": [ 77.16136969, 28.71425499 ] } },
{ "type": "Feature", "properties": { "id": "WSI-80", "name": "Kanchrapara, Barrackpur - I, North 24 Parganas", "lat": 22.94934674, "lon": 88.43282166, "type": "Dumpsites", "fuel": null, "region": null, "country": "India", "status": "operating_status", "capacity": "1254.42", "emfpm10": null, "pm10": null, "emfpm25": null, "pm25": null, "emfso2": null, "so2": null, "emfnox": null, "nox": null }, "geometry": { "type": "Point", "coordinates": [ 88.43282166, 22.94934674 ] } },
{ "type": "Feature", "properties": { "id": "WSI-81", "name": "Ghaziabad, Ghaziabad District, Uttar Pradesh", "lat": 28.70274036, "lon": 77.44668644, "type": "Dumpsites", "fuel": null, "region": null, "country": "India", "status": "operating_status", "capacity": "1141.6", "emfpm10": null, "pm10": null, "emfpm25": null, "pm25": null, "emfso2": null, "so2": null, "emfnox": null, "nox": null }, "geometry": { "type": "Point", "coordinates": [ 77.44668644, 28.70274036 ] } },
{ "type": "Feature", "properties": { "id": "WSI-82", "name": "Dinanagar, Gurdaspur Tahsil, Gurdaspur District", "lat": 32.12741805, "lon": 75.46919809000001, "type": "Dumpsites", "fuel": null, "region": null, "country": "India", "status": "operating_status", "capacity": "1112.43", "emfpm10": null, "pm10": null, "emfpm25": null, "pm25": null, "emfso2": null, "so2": null, "emfnox": null, "nox": null }, "geometry": { "type": "Point", "coordinates": [ 75.46919809, 32.12741805 ] } },
{ "type": "Feature", "properties": { "id": "WSI-83", "name": "Sainik Farm, Tigri, Saket Tehsil", "lat": 28.49914403, "lon": 77.22263117, "type": "Dumpsites", "fuel": null, "region": null, "country": "India", "status": "operating_status", "capacity": "1050.12", "emfpm10": null, "pm10": null, "emfpm25": null, "pm25": null, "emfso2": null, "so2": null, "emfnox": null, "nox": null }, "geometry": { "type": "Point", "coordinates": [ 77.22263117, 28.49914403 ] } },
{ "type": "Feature", "properties": { "id": "WSI-84", "name": "Kharagpur, Kharagpur-I, Paschim Medinipur", "lat": 22.33262234, "lon": 87.29863055, "type": "Dumpsites", "fuel": null, "region": null, "country": "India", "status": "operating_status", "capacity": "1042.5", "emfpm10": null, "pm10": null, "emfpm25": null, "pm25": null, "emfso2": null, "so2": null, "emfnox": null, "nox": null }, "geometry": { "type": "Point", "coordinates": [ 87.29863055, 22.33262234 ] } },
{ "type": "Feature", "properties": { "id": "WSI-85", "name": "Dhaurahara, Kheri, Uttar Pradesh", "lat": 27.88805759, "lon": 81.11991129, "type": "Dumpsites", "fuel": null, "region": null, "country": "India", "status": "operating_status", "capacity": "1033.85", "emfpm10": null, "pm10": null, "emfpm25": null, "pm25": null, "emfso2": null, "so2": null, "emfnox": null, "nox": null }, "geometry": { "type": "Point", "coordinates": [ 81.11991129, 27.88805759 ] } },
{ "type": "Feature", "properties": { "id": "WSI-86", "name": "Asola, Sohna, Gurugram", "lat": 28.41136074, "lon": 77.13386307, "type": "Dumpsites", "fuel": null, "region": null, "country": "India", "status": "operating_status", "capacity": "1003.57", "emfpm10": null, "pm10": null, "emfpm25": null, "pm25": null, "emfso2": null, "so2": null, "emfnox": null, "nox": null }, "geometry": { "type": "Point", "coordinates": [ 77.13386307, 28.41136074 ] } },
{ "type": "Feature", "properties": { "id": "WSI-87", "name": "Okhla", "lat": 28.32374, "lon": 77.1781718, "type": "Dumpsites", "fuel": null, "region": null, "country": "India", "status": "operating_status", "capacity": "539998.46", "emfpm10": null, "pm10": null, "emfpm25": null, "pm25": null, "emfso2": null, "so2": null, "emfnox": null, "nox": null }, "geometry": { "type": "Point", "coordinates": [ 77.1781718, 28.32374 ] } },
{ "type": "Feature", "properties": { "id": "WSI-88", "name": "Bhalaswa", "lat": 28.74041964, "lon": 77.15741158, "type": "Dumpsites", "fuel": null, "region": null, "country": "India", "status": "operating_status", "capacity": "161799.83", "emfpm10": null, "pm10": null, "emfpm25": null, "pm25": null, "emfso2": null, "so2": null, "emfnox": null, "nox": null }, "geometry": { "type": "Point", "coordinates": [ 77.15741158, 28.74041964 ] } },
{ "type": "Feature", "properties": { "id": "WSI-89", "name": "Ghazipur", "lat": 28.62502474, "lon": 77.32744217, "type": "Dumpsites", "fuel": null, "region": null, "country": "India", "status": "operating_status", "capacity": "300505.05", "emfpm10": null, "pm10": null, "emfpm25": null, "pm25": null, "emfso2": null, "so2": null, "emfnox": null, "nox": null }, "geometry": { "type": "Point", "coordinates": [ 77.32744217, 28.62502474 ] } },
{ "type": "Feature", "properties": { "id": "WSI-90", "name": "Dhapa", "lat": 22.53893819, "lon": 88.42331171, "type": "Dumpsites", "fuel": null, "region": null, "country": "India", "status": "operating_status", "capacity": "310001.75", "emfpm10": null, "pm10": null, "emfpm25": null, "pm25": null, "emfso2": null, "so2": null, "emfnox": null, "nox": null }, "geometry": { "type": "Point", "coordinates": [ 88.42331171, 22.53893819 ] } },
{ "type": "Feature", "properties": { "id": "WSI-91", "name": "Moti Jheel", "lat": 26.84452778, "lon": 80.90634722, "type": "Dumpsites", "fuel": null, "region": null, "country": "India", "status": "operating_status", "capacity": "32800.12", "emfpm10": null, "pm10": null, "emfpm25": null, "pm25": null, "emfso2": null, "so2": null, "emfnox": null, "nox": null }, "geometry": { "type": "Point", "coordinates": [ 80.90634722, 26.84452778 ] } },
{ "type": "Feature", "properties": { "id": "WSI-92", "name": "Sampatchak, Patna District, Bihar", "lat": 25.56611111, "lon": 85.17805556, "type": "Plastic_waste", "fuel": null, "region": null, "country": "India", "status": "operating_status", "capacity": "3,272", "emfpm10": null, "pm10": null, "emfpm25": null, "pm25": null, "emfso2": null, "so2": null, "emfnox": null, "nox": null }, "geometry": { "type": "Point", "coordinates": [ 85.17805556, 25.56611111 ] } },
{ "type": "Feature", "properties": { "id": "WSI-93", "name": "Gorakhpur, Uttar Pradesh, 273001", "lat": 26.72722222, "lon": 83.34361111, "type": "Plastic_waste", "fuel": null, "region": null, "country": "India", "status": "operating_status", "capacity": "862", "emfpm10": null, "pm10": null, "emfpm25": null, "pm25": null, "emfso2": null, "so2": null, "emfnox": null, "nox": null }, "geometry": { "type": "Point", "coordinates": [ 83.34361111, 26.72722222 ] } },
{ "type": "Feature", "properties": { "id": "WSI-94", "name": "Kasya, Kushinagar, Uttar Pradesh", "lat": 26.75361111, "lon": 83.95305556, "type": "Plastic_waste", "fuel": null, "region": null, "country": "India", "status": "operating_status", "capacity": "843", "emfpm10": null, "pm10": null, "emfpm25": null, "pm25": null, "emfso2": null, "so2": null, "emfnox": null, "nox": null }, "geometry": { "type": "Point", "coordinates": [ 83.95305556, 26.75361111 ] } },
{ "type": "Feature", "properties": { "id": "WSI-95", "name": "Barharganj, NH730, Padrauna", "lat": 26.92388889, "lon": 83.92055556, "type": "Plastic_waste", "fuel": null, "region": null, "country": "India", "status": "operating_status", "capacity": "1,455", "emfpm10": null, "pm10": null, "emfpm25": null, "pm25": null, "emfso2": null, "so2": null, "emfnox": null, "nox": null }, "geometry": { "type": "Point", "coordinates": [ 83.92055556, 26.92388889 ] } },
{ "type": "Feature", "properties": { "id": "WSI-96", "name": "Sadar, Varanasi, Uttar Pradesh", "lat": 25.21416667, "lon": 82.92, "type": "Plastic_waste", "fuel": null, "region": null, "country": "India", "status": "operating_status", "capacity": "754", "emfpm10": null, "pm10": null, "emfpm25": null, "pm25": null, "emfso2": null, "so2": null, "emfnox": null, "nox": null }, "geometry": { "type": "Point", "coordinates": [ 82.92, 25.21416667 ] } },
{ "type": "Feature", "properties": { "id": "WSI-97", "name": "Azamgarh, Uttar Pradesh, 276001", "lat": 26.02555556, "lon": 83.12722222, "type": "Plastic_waste", "fuel": null, "region": null, "country": "India", "status": "operating_status", "capacity": "899", "emfpm10": null, "pm10": null, "emfpm25": null, "pm25": null, "emfso2": null, "so2": null, "emfnox": null, "nox": null }, "geometry": { "type": "Point", "coordinates": [ 83.12722222, 26.02555556 ] } },
{ "type": "Feature", "properties": { "id": "WSI-98", "name": "Kishanganj, Kishanganj district, Bihar", "lat": 26.11527778, "lon": 87.955, "type": "Plastic_waste", "fuel": null, "region": null, "country": "India", "status": "operating_status", "capacity": "830", "emfpm10": null, "pm10": null, "emfpm25": null, "pm25": null, "emfso2": null, "so2": null, "emfnox": null, "nox": null }, "geometry": { "type": "Point", "coordinates": [ 87.955, 26.11527778 ] } },
{ "type": "Feature", "properties": { "id": "WSI-99", "name": "Mansahi, Katihar, Bihar", "lat": 25.50861111, "lon": 87.57722222, "type": "Plastic_waste", "fuel": null, "region": null, "country": "India", "status": "operating_status", "capacity": "294", "emfpm10": null, "pm10": null, "emfpm25": null, "pm25": null, "emfso2": null, "so2": null, "emfnox": null, "nox": null }, "geometry": { "type": "Point", "coordinates": [ 87.57722222, 25.50861111 ] } },
{ "type": "Feature", "properties": { "id": "WSI-100", "name": "Bahraich, Uttar Pradesh, 271801", "lat": 27.58888889, "lon": 81.60083333, "type": "Plastic_waste", "fuel": null, "region": null, "country": "India", "status": "operating_status", "capacity": "1,900", "emfpm10": null, "pm10": null, "emfpm25": null, "pm25": null, "emfso2": null, "so2": null, "emfnox": null, "nox": null }, "geometry": { "type": "Point", "coordinates": [ 81.60083333, 27.58888889 ] } },
{ "type": "Feature", "properties": { "id": "WSI-101", "name": "Dhaurahara, Kheri, Uttar Pradesh", "lat": 27.88805556, "lon": 81.11972222, "type": "Plastic_waste", "fuel": null, "region": null, "country": "India", "status": "operating_status", "capacity": "1,033", "emfpm10": null, "pm10": null, "emfpm25": null, "pm25": null, "emfso2": null, "so2": null, "emfnox": null, "nox": null }, "geometry": { "type": "Point", "coordinates": [ 81.11972222, 27.88805556 ] } },
{ "type": "Feature", "properties": { "id": "WSI-102", "name": "Diamond Harbour Road, Diamond Harbour, Diamond Harbour - I", "lat": 22.17138889, "lon": 88.22861111, "type": "Plastic_waste", "fuel": null, "region": null, "country": "India", "status": "operating_status", "capacity": "512", "emfpm10": null, "pm10": null, "emfpm25": null, "pm25": null, "emfso2": null, "so2": null, "emfnox": null, "nox": null }, "geometry": { "type": "Point", "coordinates": [ 88.22861111, 22.17138889 ] } },
{ "type": "Feature", "properties": { "id": "WSI-103", "name": "Falta Special Economic Zone, Diamond Harbour - II, South 24 Parganas", "lat": 22.28111111, "lon": 88.10083333, "type": "Plastic_waste", "fuel": null, "region": null, "country": "India", "status": "operating_status", "capacity": "923", "emfpm10": null, "pm10": null, "emfpm25": null, "pm25": null, "emfso2": null, "so2": null, "emfnox": null, "nox": null }, "geometry": { "type": "Point", "coordinates": [ 88.10083333, 22.28111111 ] } },
{ "type": "Feature", "properties": { "id": "WSI-104", "name": "Digha Contai Road, Contai, Contai-I", "lat": 21.765, "lon": 87.73027778, "type": "Plastic_waste", "fuel": null, "region": null, "country": "India", "status": "operating_status", "capacity": "5,135", "emfpm10": null, "pm10": null, "emfpm25": null, "pm25": null, "emfso2": null, "so2": null, "emfnox": null, "nox": null }, "geometry": { "type": "Point", "coordinates": [ 87.73027778, 21.765 ] } },
{ "type": "Feature", "properties": { "id": "WSI-105", "name": "Midnapore, Paschim Medinipur, West Bengal", "lat": 22.42416667, "lon": 87.2925, "type": "Plastic_waste", "fuel": null, "region": null, "country": "India", "status": "operating_status", "capacity": "176", "emfpm10": null, "pm10": null, "emfpm25": null, "pm25": null, "emfso2": null, "so2": null, "emfnox": null, "nox": null }, "geometry": { "type": "Point", "coordinates": [ 87.2925, 22.42416667 ] } },
{ "type": "Feature", "properties": { "id": "WSI-106", "name": "Midnapore, Paschim Medinipur, West Bengal", "lat": 22.42222222, "lon": 87.34083333, "type": "Plastic_waste", "fuel": null, "region": null, "country": "India", "status": "operating_status", "capacity": "5,944", "emfpm10": null, "pm10": null, "emfpm25": null, "pm25": null, "emfso2": null, "so2": null, "emfnox": null, "nox": null }, "geometry": { "type": "Point", "coordinates": [ 87.34083333, 22.42222222 ] } },
{ "type": "Feature", "properties": { "id": "WSI-107", "name": "Kharagpur, Kharagpur-I, Paschim Medinipur", "lat": 22.3325, "lon": 87.29861111, "type": "Plastic_waste", "fuel": null, "region": null, "country": "India", "status": "operating_status", "capacity": "1,042", "emfpm10": null, "pm10": null, "emfpm25": null, "pm25": null, "emfso2": null, "so2": null, "emfnox": null, "nox": null }, "geometry": { "type": "Point", "coordinates": [ 87.29861111, 22.3325 ] } },
{ "type": "Feature", "properties": { "id": "WSI-108", "name": "SH14, Dubrajpur, Birbhum", "lat": 23.79222222, "lon": 87.39722222, "type": "Plastic_waste", "fuel": null, "region": null, "country": "India", "status": "operating_status", "capacity": "639", "emfpm10": null, "pm10": null, "emfpm25": null, "pm25": null, "emfso2": null, "so2": null, "emfnox": null, "nox": null }, "geometry": { "type": "Point", "coordinates": [ 87.39722222, 23.79222222 ] } },
{ "type": "Feature", "properties": { "id": "WSI-109", "name": "Krishnanagar City, Krishnanagar, Krishnagar-I", "lat": 23.405, "lon": 88.51138889000001, "type": "Plastic_waste", "fuel": null, "region": null, "country": "India", "status": "operating_status", "capacity": "2,187", "emfpm10": null, "pm10": null, "emfpm25": null, "pm25": null, "emfso2": null, "so2": null, "emfnox": null, "nox": null }, "geometry": { "type": "Point", "coordinates": [ 88.51138889, 23.405 ] } },
{ "type": "Feature", "properties": { "id": "WSI-110", "name": "Badu, Barasat - II, North 24 Parganas", "lat": 22.69138889, "lon": 88.50111111, "type": "Plastic_waste", "fuel": null, "region": null, "country": "India", "status": "operating_status", "capacity": "4,450", "emfpm10": null, "pm10": null, "emfpm25": null, "pm25": null, "emfso2": null, "so2": null, "emfnox": null, "nox": null }, "geometry": { "type": "Point", "coordinates": [ 88.50111111, 22.69138889 ] } },
{ "type": "Feature", "properties": { "id": "WSI-111", "name": "Nilgunj Road, Kamarhati, Barrackpur - II", "lat": 22.67861111, "lon": 88.38, "type": "Plastic_waste", "fuel": null, "region": null, "country": "India", "status": "operating_status", "capacity": "1,769", "emfpm10": null, "pm10": null, "emfpm25": null, "pm25": null, "emfso2": null, "so2": null, "emfnox": null, "nox": null }, "geometry": { "type": "Point", "coordinates": [ 88.38, 22.67861111 ] } },
{ "type": "Feature", "properties": { "id": "WSI-112", "name": "Sodepur, Panihati, Barrackpur - II", "lat": 22.69166667, "lon": 88.38583333, "type": "Plastic_waste", "fuel": null, "region": null, "country": "India", "status": "operating_status", "capacity": "1,484", "emfpm10": null, "pm10": null, "emfpm25": null, "pm25": null, "emfso2": null, "so2": null, "emfnox": null, "nox": null }, "geometry": { "type": "Point", "coordinates": [ 88.38583333, 22.69166667 ] } },
{ "type": "Feature", "properties": { "id": "WSI-113", "name": "Barasat, Barasat - I, North 24 Parganas", "lat": 22.70555556, "lon": 88.51861111, "type": "Plastic_waste", "fuel": null, "region": null, "country": "India", "status": "operating_status", "capacity": "3,030", "emfpm10": null, "pm10": null, "emfpm25": null, "pm25": null, "emfso2": null, "so2": null, "emfnox": null, "nox": null }, "geometry": { "type": "Point", "coordinates": [ 88.51861111, 22.70555556 ] } },
{ "type": "Feature", "properties": { "id": "WSI-114", "name": "Halisahar, Barrackpur - I, North 24 Parganas", "lat": 22.92888889, "lon": 88.42055556, "type": "Plastic_waste", "fuel": null, "region": null, "country": "India", "status": "operating_status", "capacity": "957", "emfpm10": null, "pm10": null, "emfpm25": null, "pm25": null, "emfso2": null, "so2": null, "emfnox": null, "nox": null }, "geometry": { "type": "Point", "coordinates": [ 88.42055556, 22.92888889 ] } },
{ "type": "Feature", "properties": { "id": "WSI-115", "name": "Kanchrapara, Barrackpur - I, North 24 Parganas", "lat": 22.94916667, "lon": 88.43277778, "type": "Plastic_waste", "fuel": null, "region": null, "country": "India", "status": "operating_status", "capacity": "1,254", "emfpm10": null, "pm10": null, "emfpm25": null, "pm25": null, "emfso2": null, "so2": null, "emfnox": null, "nox": null }, "geometry": { "type": "Point", "coordinates": [ 88.43277778, 22.94916667 ] } },
{ "type": "Feature", "properties": { "id": "WSI-116", "name": "Kalyani-Barrackpur expressway, Kalyani, Chakdah", "lat": 22.96055556, "lon": 88.43888889, "type": "Plastic_waste", "fuel": null, "region": null, "country": "India", "status": "operating_status", "capacity": "378", "emfpm10": null, "pm10": null, "emfpm25": null, "pm25": null, "emfso2": null, "so2": null, "emfnox": null, "nox": null }, "geometry": { "type": "Point", "coordinates": [ 88.43888889, 22.96055556 ] } },
{ "type": "Feature", "properties": { "id": "WSI-117", "name": "Naihati, Barrackpur - I, North 24 Parganas", "lat": 22.89527778, "lon": 88.41055556000001, "type": "Plastic_waste", "fuel": null, "region": null, "country": "India", "status": "operating_status", "capacity": "2,660", "emfpm10": null, "pm10": null, "emfpm25": null, "pm25": null, "emfso2": null, "so2": null, "emfnox": null, "nox": null }, "geometry": { "type": "Point", "coordinates": [ 88.41055556, 22.89527778 ] } },
{ "type": "Feature", "properties": { "id": "WSI-118", "name": "Jaggadal, Barrackpur - I, North 24 Parganas", "lat": 22.85972222, "lon": 88.38805556, "type": "Plastic_waste", "fuel": null, "region": null, "country": "India", "status": "operating_status", "capacity": "5,622", "emfpm10": null, "pm10": null, "emfpm25": null, "pm25": null, "emfso2": null, "so2": null, "emfnox": null, "nox": null }, "geometry": { "type": "Point", "coordinates": [ 88.38805556, 22.85972222 ] } },
{ "type": "Feature", "properties": { "id": "WSI-119", "name": "Chunchura, Chinsurah - Magra, Hugli", "lat": 22.89305556, "lon": 88.3775, "type": "Plastic_waste", "fuel": null, "region": null, "country": "India", "status": "operating_status", "capacity": "693", "emfpm10": null, "pm10": null, "emfpm25": null, "pm25": null, "emfso2": null, "so2": null, "emfnox": null, "nox": null }, "geometry": { "type": "Point", "coordinates": [ 88.3775, 22.89305556 ] } },
{ "type": "Feature", "properties": { "id": "WSI-120", "name": "Chandannagar, Singur, Hugli", "lat": 22.87194444, "lon": 88.35972222, "type": "Plastic_waste", "fuel": null, "region": null, "country": "India", "status": "operating_status", "capacity": "256", "emfpm10": null, "pm10": null, "emfpm25": null, "pm25": null, "emfso2": null, "so2": null, "emfnox": null, "nox": null }, "geometry": { "type": "Point", "coordinates": [ 88.35972222, 22.87194444 ] } },
{ "type": "Feature", "properties": { "id": "WSI-121", "name": "Sardar Bazar, Barrackpore, Barrackpur - II", "lat": 22.77027778, "lon": 88.33777778, "type": "Plastic_waste", "fuel": null, "region": null, "country": "India", "status": "operating_status", "capacity": "1,733", "emfpm10": null, "pm10": null, "emfpm25": null, "pm25": null, "emfso2": null, "so2": null, "emfnox": null, "nox": null }, "geometry": { "type": "Point", "coordinates": [ 88.33777778, 22.77027778 ] } },
{ "type": "Feature", "properties": { "id": "WSI-122", "name": "Serampore, Serampur Uttarpara, Hugli", "lat": 22.78805556, "lon": 88.30916667, "type": "Plastic_waste", "fuel": null, "region": null, "country": "India", "status": "operating_status", "capacity": "622", "emfpm10": null, "pm10": null, "emfpm25": null, "pm25": null, "emfso2": null, "so2": null, "emfnox": null, "nox": null }, "geometry": { "type": "Point", "coordinates": [ 88.30916667, 22.78805556 ] } },
{ "type": "Feature", "properties": { "id": "WSI-123", "name": "Beltala, Barrackpore, Barrackpur - II", "lat": 22.74888889, "lon": 88.3825, "type": "Plastic_waste", "fuel": null, "region": null, "country": "India", "status": "operating_status", "capacity": "1,743", "emfpm10": null, "pm10": null, "emfpm25": null, "pm25": null, "emfso2": null, "so2": null, "emfnox": null, "nox": null }, "geometry": { "type": "Point", "coordinates": [ 88.3825, 22.74888889 ] } },
{ "type": "Feature", "properties": { "id": "WSI-124", "name": "Serampore, Serampur Uttarpara, Hugli", "lat": 22.72805556, "lon": 88.34833333, "type": "Plastic_waste", "fuel": null, "region": null, "country": "India", "status": "operating_status", "capacity": "600", "emfpm10": null, "pm10": null, "emfpm25": null, "pm25": null, "emfso2": null, "so2": null, "emfnox": null, "nox": null }, "geometry": { "type": "Point", "coordinates": [ 88.34833333, 22.72805556 ] } },
{ "type": "Feature", "properties": { "id": "WSI-125", "name": "Math Para, Titagarh, Barrackpur - II", "lat": 22.73583333, "lon": 88.37666667000001, "type": "Plastic_waste", "fuel": null, "region": null, "country": "India", "status": "operating_status", "capacity": "346", "emfpm10": null, "pm10": null, "emfpm25": null, "pm25": null, "emfso2": null, "so2": null, "emfnox": null, "nox": null }, "geometry": { "type": "Point", "coordinates": [ 88.37666667, 22.73583333 ] } },
{ "type": "Feature", "properties": { "id": "WSI-126", "name": "Lenninagar, Shyamnagar, Garshyamnagar", "lat": 22.81777778, "lon": 88.37138889000001, "type": "Plastic_waste", "fuel": null, "region": null, "country": "India", "status": "operating_status", "capacity": "970", "emfpm10": null, "pm10": null, "emfpm25": null, "pm25": null, "emfso2": null, "so2": null, "emfnox": null, "nox": null }, "geometry": { "type": "Point", "coordinates": [ 88.37138889, 22.81777778 ] } },
{ "type": "Feature", "properties": { "id": "WSI-127", "name": "Chandannagar, Singur, Hugli", "lat": 22.83416667, "lon": 88.34638889, "type": "Plastic_waste", "fuel": null, "region": null, "country": "India", "status": "operating_status", "capacity": "497", "emfpm10": null, "pm10": null, "emfpm25": null, "pm25": null, "emfso2": null, "so2": null, "emfnox": null, "nox": null }, "geometry": { "type": "Point", "coordinates": [ 88.34638889, 22.83416667 ] } },
{ "type": "Feature", "properties": { "id": "WSI-128", "name": "Maheshtala, Thakurpukur Maheshtala, South 24 Parganas", "lat": 22.49277778, "lon": 88.20555556, "type": "Plastic_waste", "fuel": null, "region": null, "country": "India", "status": "operating_status", "capacity": "2,294", "emfpm10": null, "pm10": null, "emfpm25": null, "pm25": null, "emfso2": null, "so2": null, "emfnox": null, "nox": null }, "geometry": { "type": "Point", "coordinates": [ 88.20555556, 22.49277778 ] } },
{ "type": "Feature", "properties": { "id": "WSI-129", "name": "Maheshtala, Thakurpukur Maheshtala, South 24 Parganas", "lat": 22.54388889, "lon": 88.27527778, "type": "Plastic_waste", "fuel": null, "region": null, "country": "India", "status": "operating_status", "capacity": "856", "emfpm10": null, "pm10": null, "emfpm25": null, "pm25": null, "emfso2": null, "so2": null, "emfnox": null, "nox": null }, "geometry": { "type": "Point", "coordinates": [ 88.27527778, 22.54388889 ] } },
{ "type": "Feature", "properties": { "id": "WSI-130", "name": "Budge Budge, Budge Budge - I, South 24 Parganas", "lat": 22.47333333, "lon": 88.18888889, "type": "Plastic_waste", "fuel": null, "region": null, "country": "India", "status": "operating_status", "capacity": "785", "emfpm10": null, "pm10": null, "emfpm25": null, "pm25": null, "emfso2": null, "so2": null, "emfnox": null, "nox": null }, "geometry": { "type": "Point", "coordinates": [ 88.18888889, 22.47333333 ] } },
{ "type": "Feature", "properties": { "id": "WSI-131", "name": "Dhapa Road, Makaltala, Kolkata", "lat": 22.53666667, "lon": 88.42416667000001, "type": "Plastic_waste", "fuel": null, "region": null, "country": "India", "status": "operating_status", "capacity": "91,275", "emfpm10": null, "pm10": null, "emfpm25": null, "pm25": null, "emfso2": null, "so2": null, "emfnox": null, "nox": null }, "geometry": { "type": "Point", "coordinates": [ 88.42416667, 22.53666667 ] } },
{ "type": "Feature", "properties": { "id": "WSI-132", "name": "GP Block, Bhangar - II, South 24 Parganas", "lat": 22.56416667, "lon": 88.44805556, "type": "Plastic_waste", "fuel": null, "region": null, "country": "India", "status": "operating_status", "capacity": "39,800", "emfpm10": null, "pm10": null, "emfpm25": null, "pm25": null, "emfso2": null, "so2": null, "emfnox": null, "nox": null }, "geometry": { "type": "Point", "coordinates": [ 88.44805556, 22.56416667 ] } },
{ "type": "Feature", "properties": { "id": "WSI-133", "name": "Rajpur Sonarpur, Sonarpur, South 24 Parganas", "lat": 22.42222222, "lon": 88.42527778, "type": "Plastic_waste", "fuel": null, "region": null, "country": "India", "status": "operating_status", "capacity": "898", "emfpm10": null, "pm10": null, "emfpm25": null, "pm25": null, "emfso2": null, "so2": null, "emfnox": null, "nox": null }, "geometry": { "type": "Point", "coordinates": [ 88.42527778, 22.42222222 ] } },
{ "type": "Feature", "properties": { "id": "WSI-134", "name": "Bally, Bally Jagachha, Howrah", "lat": 22.63555556, "lon": 88.33388889, "type": "Plastic_waste", "fuel": null, "region": null, "country": "India", "status": "operating_status", "capacity": "3,308", "emfpm10": null, "pm10": null, "emfpm25": null, "pm25": null, "emfso2": null, "so2": null, "emfnox": null, "nox": null }, "geometry": { "type": "Point", "coordinates": [ 88.33388889, 22.63555556 ] } },
{ "type": "Feature", "properties": { "id": "WSI-135", "name": "Howrah, Haora, Howrah", "lat": 22.61027778, "lon": 88.32611111, "type": "Plastic_waste", "fuel": null, "region": null, "country": "India", "status": "operating_status", "capacity": "1,660", "emfpm10": null, "pm10": null, "emfpm25": null, "pm25": null, "emfso2": null, "so2": null, "emfnox": null, "nox": null }, "geometry": { "type": "Point", "coordinates": [ 88.32611111, 22.61027778 ] } },
{ "type": "Feature", "properties": { "id": "WSI-136", "name": "Uttarpara Kotrung, Serampur Uttarpara, Hugli", "lat": 22.66666667, "lon": 88.33527778, "type": "Plastic_waste", "fuel": null, "region": null, "country": "India", "status": "operating_status", "capacity": "2,451", "emfpm10": null, "pm10": null, "emfpm25": null, "pm25": null, "emfso2": null, "so2": null, "emfnox": null, "nox": null }, "geometry": { "type": "Point", "coordinates": [ 88.33527778, 22.66666667 ] } },
{ "type": "Feature", "properties": { "id": "WSI-137", "name": "Jiaganj, Murshidabad Jiaganj, Murshidabad", "lat": 24.22611111, "lon": 88.26777778, "type": "Plastic_waste", "fuel": null, "region": null, "country": "India", "status": "operating_status", "capacity": "1,997", "emfpm10": null, "pm10": null, "emfpm25": null, "pm25": null, "emfso2": null, "so2": null, "emfnox": null, "nox": null }, "geometry": { "type": "Point", "coordinates": [ 88.26777778, 24.22611111 ] } },
{ "type": "Feature", "properties": { "id": "WSI-138", "name": "Rajgram, Murarai - I, Birbhum", "lat": 24.54472222, "lon": 87.87027778, "type": "Plastic_waste", "fuel": null, "region": null, "country": "India", "status": "operating_status", "capacity": "404", "emfpm10": null, "pm10": null, "emfpm25": null, "pm25": null, "emfso2": null, "so2": null, "emfnox": null, "nox": null }, "geometry": { "type": "Point", "coordinates": [ 87.87027778, 24.54472222 ] } },
{ "type": "Feature", "properties": { "id": "WSI-139", "name": "Rampurhat, Rampurhat - I, Birbhum", "lat": 24.18777778, "lon": 87.75694444, "type": "Plastic_waste", "fuel": null, "region": null, "country": "India", "status": "operating_status", "capacity": "2,545", "emfpm10": null, "pm10": null, "emfpm25": null, "pm25": null, "emfso2": null, "so2": null, "emfnox": null, "nox": null }, "geometry": { "type": "Point", "coordinates": [ 87.75694444, 24.18777778 ] } },
{ "type": "Feature", "properties": { "id": "WSI-140", "name": "Nabadwip, Nadia, West Bengal", "lat": 23.41527778, "lon": 88.35555556, "type": "Plastic_waste", "fuel": null, "region": null, "country": "India", "status": "operating_status", "capacity": "932", "emfpm10": null, "pm10": null, "emfpm25": null, "pm25": null, "emfso2": null, "so2": null, "emfnox": null, "nox": null }, "geometry": { "type": "Point", "coordinates": [ 88.35555556, 23.41527778 ] } },
{ "type": "Feature", "properties": { "id": "WSI-141", "name": "SH4, Ghatal, Paschim Medinipur", "lat": 22.66361111, "lon": 87.72388889, "type": "Plastic_waste", "fuel": null, "region": null, "country": "India", "status": "operating_status", "capacity": "1,845", "emfpm10": null, "pm10": null, "emfpm25": null, "pm25": null, "emfso2": null, "so2": null, "emfnox": null, "nox": null }, "geometry": { "type": "Point", "coordinates": [ 87.72388889, 22.66361111 ] } },
{ "type": "Feature", "properties": { "id": "WSI-142", "name": "Bolpur Nursing Home, NH114, Shantiniketan", "lat": 23.68055556, "lon": 87.72222222000001, "type": "Plastic_waste", "fuel": null, "region": null, "country": "India", "status": "operating_status", "capacity": "5,150", "emfpm10": null, "pm10": null, "emfpm25": null, "pm25": null, "emfso2": null, "so2": null, "emfnox": null, "nox": null }, "geometry": { "type": "Point", "coordinates": [ 87.72222222, 23.68055556 ] } },
{ "type": "Feature", "properties": { "id": "WSI-143", "name": "Ward 26, Kishangarh, Chandigarh", "lat": 30.72333333, "lon": 76.8275, "type": "Plastic_waste", "fuel": null, "region": null, "country": "India", "status": "operating_status", "capacity": "9,975", "emfpm10": null, "pm10": null, "emfpm25": null, "pm25": null, "emfso2": null, "so2": null, "emfnox": null, "nox": null }, "geometry": { "type": "Point", "coordinates": [ 76.8275, 30.72333333 ] } },
{ "type": "Feature", "properties": { "id": "WSI-144", "name": "Sonipat, Haryana, 131001", "lat": 29.03555556, "lon": 77.05916667, "type": "Plastic_waste", "fuel": null, "region": null, "country": "India", "status": "operating_status", "capacity": "2,284", "emfpm10": null, "pm10": null, "emfpm25": null, "pm25": null, "emfso2": null, "so2": null, "emfnox": null, "nox": null }, "geometry": { "type": "Point", "coordinates": [ 77.05916667, 29.03555556 ] } },
{ "type": "Feature", "properties": { "id": "WSI-145", "name": "Baraut, Baghpat, Uttar Pradesh", "lat": 29.085, "lon": 77.25833333, "type": "Plastic_waste", "fuel": null, "region": null, "country": "India", "status": "operating_status", "capacity": "1,685", "emfpm10": null, "pm10": null, "emfpm25": null, "pm25": null, "emfso2": null, "so2": null, "emfnox": null, "nox": null }, "geometry": { "type": "Point", "coordinates": [ 77.25833333, 29.085 ] } },
{ "type": "Feature", "properties": { "id": "WSI-146", "name": "Sardhana, Meerut, Uttar Pradesh", "lat": 29.14333333, "lon": 77.61944444, "type": "Plastic_waste", "fuel": null, "region": null, "country": "India", "status": "operating_status", "capacity": "299", "emfpm10": null, "pm10": null, "emfpm25": null, "pm25": null, "emfso2": null, "so2": null, "emfnox": null, "nox": null }, "geometry": { "type": "Point", "coordinates": [ 77.61944444, 29.14333333 ] } },
{ "type": "Feature", "properties": { "id": "WSI-147", "name": "Kurukshetra, Thanesar, Kurukshetra", "lat": 29.96166667, "lon": 76.83611111, "type": "Plastic_waste", "fuel": null, "region": null, "country": "India", "status": "operating_status", "capacity": "556", "emfpm10": null, "pm10": null, "emfpm25": null, "pm25": null, "emfso2": null, "so2": null, "emfnox": null, "nox": null }, "geometry": { "type": "Point", "coordinates": [ 76.83611111, 29.96166667 ] } },
{ "type": "Feature", "properties": { "id": "WSI-148", "name": "Meerut-Karnal Marg, Mirgain, Karnal", "lat": 29.64361111, "lon": 77.04833333000001, "type": "Plastic_waste", "fuel": null, "region": null, "country": "India", "status": "operating_status", "capacity": "12,127", "emfpm10": null, "pm10": null, "emfpm25": null, "pm25": null, "emfso2": null, "so2": null, "emfnox": null, "nox": null }, "geometry": { "type": "Point", "coordinates": [ 77.04833333, 29.64361111 ] } },
{ "type": "Feature", "properties": { "id": "WSI-149", "name": "Panipat, Haryana, 132100", "lat": 29.41444444, "lon": 76.94972222, "type": "Plastic_waste", "fuel": null, "region": null, "country": "India", "status": "operating_status", "capacity": "736", "emfpm10": null, "pm10": null, "emfpm25": null, "pm25": null, "emfso2": null, "so2": null, "emfnox": null, "nox": null }, "geometry": { "type": "Point", "coordinates": [ 76.94972222, 29.41444444 ] } },
{ "type": "Feature", "properties": { "id": "WSI-150", "name": "Foster Supermarket, E331, Indiaustrial Area", "lat": 30.70944444, "lon": 76.6825, "type": "Plastic_waste", "fuel": null, "region": null, "country": "India", "status": "operating_status", "capacity": "13,429", "emfpm10": null, "pm10": null, "emfpm25": null, "pm25": null, "emfso2": null, "so2": null, "emfnox": null, "nox": null }, "geometry": { "type": "Point", "coordinates": [ 76.6825, 30.70944444 ] } },
{ "type": "Feature", "properties": { "id": "WSI-151", "name": "Khanpur, Kharar Tahsil, Sahibzada Ajit Singh Nagar", "lat": 30.76361111, "lon": 76.63916667, "type": "Plastic_waste", "fuel": null, "region": null, "country": "India", "status": "operating_status", "capacity": "395", "emfpm10": null, "pm10": null, "emfpm25": null, "pm25": null, "emfso2": null, "so2": null, "emfnox": null, "nox": null }, "geometry": { "type": "Point", "coordinates": [ 76.63916667, 30.76361111 ] } },
{ "type": "Feature", "properties": { "id": "WSI-152", "name": "Malerkotla, Malerkotla Tahsil, Sangrur", "lat": 30.54666667, "lon": 75.86388889, "type": "Plastic_waste", "fuel": null, "region": null, "country": "India", "status": "operating_status", "capacity": "6,388", "emfpm10": null, "pm10": null, "emfpm25": null, "pm25": null, "emfso2": null, "so2": null, "emfnox": null, "nox": null }, "geometry": { "type": "Point", "coordinates": [ 75.86388889, 30.54666667 ] } },
{ "type": "Feature", "properties": { "id": "WSI-153", "name": "Dinanagar, Gurdaspur Tahsil, Gurdaspur district", "lat": 32.12722222, "lon": 75.46916667000001, "type": "Plastic_waste", "fuel": null, "region": null, "country": "India", "status": "operating_status", "capacity": "1,112", "emfpm10": null, "pm10": null, "emfpm25": null, "pm25": null, "emfso2": null, "so2": null, "emfnox": null, "nox": null }, "geometry": { "type": "Point", "coordinates": [ 75.46916667, 32.12722222 ] } },
{ "type": "Feature", "properties": { "id": "WSI-154", "name": "Raebareli, Uttar Pradesh, 229001", "lat": 26.20555556, "lon": 81.27194444, "type": "Plastic_waste", "fuel": null, "region": null, "country": "India", "status": "operating_status", "capacity": "675", "emfpm10": null, "pm10": null, "emfpm25": null, "pm25": null, "emfso2": null, "so2": null, "emfnox": null, "nox": null }, "geometry": { "type": "Point", "coordinates": [ 81.27194444, 26.20555556 ] } },
{ "type": "Feature", "properties": { "id": "WSI-155", "name": "Chowk, Faizabad, Uttar Pradesh", "lat": 26.8, "lon": 82.14, "type": "Plastic_waste", "fuel": null, "region": null, "country": "India", "status": "operating_status", "capacity": "755", "emfpm10": null, "pm10": null, "emfpm25": null, "pm25": null, "emfso2": null, "so2": null, "emfnox": null, "nox": null }, "geometry": { "type": "Point", "coordinates": [ 82.14, 26.8 ] } },
{ "type": "Feature", "properties": { "id": "WSI-156", "name": "Karchhana, Prayagraj, Uttar Pradesh", "lat": 25.37944444, "lon": 81.80527778, "type": "Plastic_waste", "fuel": null, "region": null, "country": "India", "status": "operating_status", "capacity": "1,841", "emfpm10": null, "pm10": null, "emfpm25": null, "pm25": null, "emfso2": null, "so2": null, "emfnox": null, "nox": null }, "geometry": { "type": "Point", "coordinates": [ 81.80527778, 25.37944444 ] } },
{ "type": "Feature", "properties": { "id": "WSI-157", "name": "Unnao, Uttar Pradesh, 209800", "lat": 26.55555556, "lon": 80.52027778, "type": "Plastic_waste", "fuel": null, "region": null, "country": "India", "status": "operating_status", "capacity": "10,551", "emfpm10": null, "pm10": null, "emfpm25": null, "pm25": null, "emfso2": null, "so2": null, "emfnox": null, "nox": null }, "geometry": { "type": "Point", "coordinates": [ 80.52027778, 26.55555556 ] } },
{ "type": "Feature", "properties": { "id": "WSI-158", "name": "Barabanki, Nawabganj, Barabanki", "lat": 26.93583333, "lon": 81.21472222, "type": "Plastic_waste", "fuel": null, "region": null, "country": "India", "status": "operating_status", "capacity": "139", "emfpm10": null, "pm10": null, "emfpm25": null, "pm25": null, "emfso2": null, "so2": null, "emfnox": null, "nox": null }, "geometry": { "type": "Point", "coordinates": [ 81.21472222, 26.93583333 ] } },
{ "type": "Feature", "properties": { "id": "WSI-159", "name": "Aurangabad, Sadar, Lucknow", "lat": 26.76416667, "lon": 80.90833333, "type": "Plastic_waste", "fuel": null, "region": null, "country": "India", "status": "operating_status", "capacity": "639", "emfpm10": null, "pm10": null, "emfpm25": null, "pm25": null, "emfso2": null, "so2": null, "emfnox": null, "nox": null }, "geometry": { "type": "Point", "coordinates": [ 80.90833333, 26.76416667 ] } },
{ "type": "Feature", "properties": { "id": "WSI-160", "name": "Civil Lines, Lucknow, Sadar", "lat": 26.86194444, "lon": 80.97027778, "type": "Plastic_waste", "fuel": null, "region": null, "country": "India", "status": "operating_status", "capacity": "363", "emfpm10": null, "pm10": null, "emfpm25": null, "pm25": null, "emfso2": null, "so2": null, "emfnox": null, "nox": null }, "geometry": { "type": "Point", "coordinates": [ 80.97027778, 26.86194444 ] } },
{ "type": "Feature", "properties": { "id": "WSI-161", "name": "Tankri, Bawal, Rewari District", "lat": 28.07888889, "lon": 76.505, "type": "Plastic_waste", "fuel": null, "region": null, "country": "India", "status": "operating_status", "capacity": "487", "emfpm10": null, "pm10": null, "emfpm25": null, "pm25": null, "emfso2": null, "so2": null, "emfnox": null, "nox": null }, "geometry": { "type": "Point", "coordinates": [ 76.505, 28.07888889 ] } },
{ "type": "Feature", "properties": { "id": "WSI-162", "name": "Bawal, Rewari District, Haryana", "lat": 28.08083333, "lon": 76.56805556, "type": "Plastic_waste", "fuel": null, "region": null, "country": "India", "status": "operating_status", "capacity": "800", "emfpm10": null, "pm10": null, "emfpm25": null, "pm25": null, "emfso2": null, "so2": null, "emfnox": null, "nox": null }, "geometry": { "type": "Point", "coordinates": [ 76.56805556, 28.08083333 ] } },
{ "type": "Feature", "properties": { "id": "WSI-163", "name": "Rewari, Rewari District, Haryana", "lat": 28.17861111, "lon": 76.60638889000001, "type": "Plastic_waste", "fuel": null, "region": null, "country": "India", "status": "operating_status", "capacity": "600", "emfpm10": null, "pm10": null, "emfpm25": null, "pm25": null, "emfso2": null, "so2": null, "emfnox": null, "nox": null }, "geometry": { "type": "Point", "coordinates": [ 76.60638889, 28.17861111 ] } },
{ "type": "Feature", "properties": { "id": "WSI-164", "name": "Jai Durga Dental Hospital, SH24, Kanina Khas", "lat": 28.33055556, "lon": 76.30361111000001, "type": "Plastic_waste", "fuel": null, "region": null, "country": "India", "status": "operating_status", "capacity": "218", "emfpm10": null, "pm10": null, "emfpm25": null, "pm25": null, "emfso2": null, "so2": null, "emfnox": null, "nox": null }, "geometry": { "type": "Point", "coordinates": [ 76.30361111, 28.33055556 ] } },
{ "type": "Feature", "properties": { "id": "WSI-165", "name": "Mahendragarh, Haryana, 123029", "lat": 28.25888889, "lon": 76.15722222, "type": "Plastic_waste", "fuel": null, "region": null, "country": "India", "status": "operating_status", "capacity": "451", "emfpm10": null, "pm10": null, "emfpm25": null, "pm25": null, "emfso2": null, "so2": null, "emfnox": null, "nox": null }, "geometry": { "type": "Point", "coordinates": [ 76.15722222, 28.25888889 ] } },
{ "type": "Feature", "properties": { "id": "WSI-166", "name": "Summer Sprint PY, Asola, Sohna", "lat": 28.40166667, "lon": 77.17111111, "type": "Plastic_waste", "fuel": null, "region": null, "country": "India", "status": "operating_status", "capacity": "1,361", "emfpm10": null, "pm10": null, "emfpm25": null, "pm25": null, "emfso2": null, "so2": null, "emfnox": null, "nox": null }, "geometry": { "type": "Point", "coordinates": [ 77.17111111, 28.40166667 ] } },
{ "type": "Feature", "properties": { "id": "WSI-167", "name": "Asola, Sohna, Gurugram", "lat": 28.41111111, "lon": 77.13361111, "type": "Plastic_waste", "fuel": null, "region": null, "country": "India", "status": "operating_status", "capacity": "1,003", "emfpm10": null, "pm10": null, "emfpm25": null, "pm25": null, "emfso2": null, "so2": null, "emfnox": null, "nox": null }, "geometry": { "type": "Point", "coordinates": [ 77.13361111, 28.41111111 ] } },
{ "type": "Feature", "properties": { "id": "WSI-168", "name": "Vasant Vihar Tehsil, New Delhi, Delhi", "lat": 28.53277778, "lon": 77.12694444, "type": "Plastic_waste", "fuel": null, "region": null, "country": "India", "status": "operating_status", "capacity": "8,609", "emfpm10": null, "pm10": null, "emfpm25": null, "pm25": null, "emfso2": null, "so2": null, "emfnox": null, "nox": null }, "geometry": { "type": "Point", "coordinates": [ 77.12694444, 28.53277778 ] } },
{ "type": "Feature", "properties": { "id": "WSI-169", "name": "Sainik Farm, Tigri, Saket Tehsil", "lat": 28.49888889, "lon": 77.2225, "type": "Plastic_waste", "fuel": null, "region": null, "country": "India", "status": "operating_status", "capacity": "1,050", "emfpm10": null, "pm10": null, "emfpm25": null, "pm25": null, "emfso2": null, "so2": null, "emfnox": null, "nox": null }, "geometry": { "type": "Point", "coordinates": [ 77.2225, 28.49888889 ] } },
{ "type": "Feature", "properties": { "id": "WSI-170", "name": "Allahbas, Dadri, Gautam Buddha Nagar", "lat": 28.51861111, "lon": 77.41666667, "type": "Plastic_waste", "fuel": null, "region": null, "country": "India", "status": "operating_status", "capacity": "1,297", "emfpm10": null, "pm10": null, "emfpm25": null, "pm25": null, "emfso2": null, "so2": null, "emfnox": null, "nox": null }, "geometry": { "type": "Point", "coordinates": [ 77.41666667, 28.51861111 ] } },
{ "type": "Feature", "properties": { "id": "WSI-171", "name": "Sector 106, Gurgaon, Gurugram", "lat": 28.49805556, "lon": 77.00222222, "type": "Plastic_waste", "fuel": null, "region": null, "country": "India", "status": "operating_status", "capacity": "1,399", "emfpm10": null, "pm10": null, "emfpm25": null, "pm25": null, "emfso2": null, "so2": null, "emfnox": null, "nox": null }, "geometry": { "type": "Point", "coordinates": [ 77.00222222, 28.49805556 ] } },
{ "type": "Feature", "properties": { "id": "WSI-172", "name": "HUDA, Sector 21, Gurgaon", "lat": 28.51333333, "lon": 77.07111111, "type": "Plastic_waste", "fuel": null, "region": null, "country": "India", "status": "operating_status", "capacity": "2,395", "emfpm10": null, "pm10": null, "emfpm25": null, "pm25": null, "emfso2": null, "so2": null, "emfnox": null, "nox": null }, "geometry": { "type": "Point", "coordinates": [ 77.07111111, 28.51333333 ] } },
{ "type": "Feature", "properties": { "id": "WSI-173", "name": "Sainik Nagar, Patel Nagar Tehsil, West Delhi", "lat": 28.61583333, "lon": 77.04333333, "type": "Plastic_waste", "fuel": null, "region": null, "country": "India", "status": "operating_status", "capacity": "827", "emfpm10": null, "pm10": null, "emfpm25": null, "pm25": null, "emfso2": null, "so2": null, "emfnox": null, "nox": null }, "geometry": { "type": "Point", "coordinates": [ 77.04333333, 28.61583333 ] } },
{ "type": "Feature", "properties": { "id": "WSI-174", "name": "Pusta Road, Khajuri, Seelampur", "lat": 28.68638889, "lon": 77.25138889, "type": "Plastic_waste", "fuel": null, "region": null, "country": "India", "status": "operating_status", "capacity": "5,564", "emfpm10": null, "pm10": null, "emfpm25": null, "pm25": null, "emfso2": null, "so2": null, "emfnox": null, "nox": null }, "geometry": { "type": "Point", "coordinates": [ 77.25138889, 28.68638889 ] } },
{ "type": "Feature", "properties": { "id": "WSI-175", "name": "Sector 59, Ireo City, Sohna", "lat": 28.40555556, "lon": 77.10444444, "type": "Plastic_waste", "fuel": null, "region": null, "country": "India", "status": "operating_status", "capacity": "281", "emfpm10": null, "pm10": null, "emfpm25": null, "pm25": null, "emfso2": null, "so2": null, "emfnox": null, "nox": null }, "geometry": { "type": "Point", "coordinates": [ 77.10444444, 28.40555556 ] } },
{ "type": "Feature", "properties": { "id": "WSI-176", "name": "Sector 52A, Gurgaon, Gurugram", "lat": 28.43916667, "lon": 77.0925, "type": "Plastic_waste", "fuel": null, "region": null, "country": "India", "status": "operating_status", "capacity": "505", "emfpm10": null, "pm10": null, "emfpm25": null, "pm25": null, "emfso2": null, "so2": null, "emfnox": null, "nox": null }, "geometry": { "type": "Point", "coordinates": [ 77.0925, 28.43916667 ] } },
{ "type": "Feature", "properties": { "id": "WSI-177", "name": "Pace CityII, Sector 36, Gurgaon", "lat": 28.42194444, "lon": 76.98944444, "type": "Plastic_waste", "fuel": null, "region": null, "country": "India", "status": "operating_status", "capacity": "1,970", "emfpm10": null, "pm10": null, "emfpm25": null, "pm25": null, "emfso2": null, "so2": null, "emfnox": null, "nox": null }, "geometry": { "type": "Point", "coordinates": [ 76.98944444, 28.42194444 ] } },
{ "type": "Feature", "properties": { "id": "WSI-178", "name": "Greater Noida, Gautam Buddha Nagar, Uttar Pradesh", "lat": 28.50361111, "lon": 77.53222222, "type": "Plastic_waste", "fuel": null, "region": null, "country": "India", "status": "operating_status", "capacity": "3,433", "emfpm10": null, "pm10": null, "emfpm25": null, "pm25": null, "emfso2": null, "so2": null, "emfnox": null, "nox": null }, "geometry": { "type": "Point", "coordinates": [ 77.53222222, 28.50361111 ] } },
{ "type": "Feature", "properties": { "id": "WSI-179", "name": "Punjabi Bagh Tehsil, West Delhi, Delhi", "lat": 28.665, "lon": 76.965, "type": "Plastic_waste", "fuel": null, "region": null, "country": "India", "status": "operating_status", "capacity": "1,830", "emfpm10": null, "pm10": null, "emfpm25": null, "pm25": null, "emfso2": null, "so2": null, "emfnox": null, "nox": null }, "geometry": { "type": "Point", "coordinates": [ 76.965, 28.665 ] } },
{ "type": "Feature", "properties": { "id": "WSI-180", "name": "Rohini Tehsil, North West Delhi, Delhi", "lat": 28.71472222, "lon": 77.08222222000001, "type": "Plastic_waste", "fuel": null, "region": null, "country": "India", "status": "operating_status", "capacity": "728", "emfpm10": null, "pm10": null, "emfpm25": null, "pm25": null, "emfso2": null, "so2": null, "emfnox": null, "nox": null }, "geometry": { "type": "Point", "coordinates": [ 77.08222222, 28.71472222 ] } },
{ "type": "Feature", "properties": { "id": "WSI-181", "name": "Saraswati Vihar Tehsil, North West Delhi, Delhi", "lat": 28.71416667, "lon": 77.16111111, "type": "Plastic_waste", "fuel": null, "region": null, "country": "India", "status": "operating_status", "capacity": "1,296", "emfpm10": null, "pm10": null, "emfpm25": null, "pm25": null, "emfso2": null, "so2": null, "emfnox": null, "nox": null }, "geometry": { "type": "Point", "coordinates": [ 77.16111111, 28.71416667 ] } },
{ "type": "Feature", "properties": { "id": "WSI-182", "name": "Punjabi Bagh Tehsil, West Delhi, Delhi", "lat": 28.67472222, "lon": 77.13305556, "type": "Plastic_waste", "fuel": null, "region": null, "country": "India", "status": "operating_status", "capacity": "2,015", "emfpm10": null, "pm10": null, "emfpm25": null, "pm25": null, "emfso2": null, "so2": null, "emfnox": null, "nox": null }, "geometry": { "type": "Point", "coordinates": [ 77.13305556, 28.67472222 ] } },
{ "type": "Feature", "properties": { "id": "WSI-183", "name": "Beri, Jhajjar, Haryana", "lat": 28.72916667, "lon": 76.66972222, "type": "Plastic_waste", "fuel": null, "region": null, "country": "India", "status": "operating_status", "capacity": "1,711", "emfpm10": null, "pm10": null, "emfpm25": null, "pm25": null, "emfso2": null, "so2": null, "emfnox": null, "nox": null }, "geometry": { "type": "Point", "coordinates": [ 76.66972222, 28.72916667 ] } },
{ "type": "Feature", "properties": { "id": "WSI-184", "name": "Ghaziabad, Ghaziabad District, Uttar Pradesh", "lat": 28.7025, "lon": 77.44666667, "type": "Plastic_waste", "fuel": null, "region": null, "country": "India", "status": "operating_status", "capacity": "1,141", "emfpm10": null, "pm10": null, "emfpm25": null, "pm25": null, "emfso2": null, "so2": null, "emfnox": null, "nox": null }, "geometry": { "type": "Point", "coordinates": [ 77.44666667, 28.7025 ] } },
{ "type": "Feature", "properties": { "id": "WSI-185", "name": "Ghaziabad, Ghaziabad District, Uttar Pradesh", "lat": 28.62888889, "lon": 77.35277778, "type": "Plastic_waste", "fuel": null, "region": null, "country": "India", "status": "operating_status", "capacity": "642", "emfpm10": null, "pm10": null, "emfpm25": null, "pm25": null, "emfso2": null, "so2": null, "emfnox": null, "nox": null }, "geometry": { "type": "Point", "coordinates": [ 77.35277778, 28.62888889 ] } },
{ "type": "Feature", "properties": { "id": "WSI-186", "name": "Ghaziabad, Ghaziabad District, Uttar Pradesh", "lat": 28.71611111, "lon": 77.33166667, "type": "Plastic_waste", "fuel": null, "region": null, "country": "India", "status": "operating_status", "capacity": "3,930", "emfpm10": null, "pm10": null, "emfpm25": null, "pm25": null, "emfso2": null, "so2": null, "emfnox": null, "nox": null }, "geometry": { "type": "Point", "coordinates": [ 77.33166667, 28.71611111 ] } },
{ "type": "Feature", "properties": { "id": "WSI-187", "name": "Pataudi, Gurugram, Haryana", "lat": 28.31972222, "lon": 76.77472222, "type": "Plastic_waste", "fuel": null, "region": null, "country": "India", "status": "operating_status", "capacity": "2,889", "emfpm10": null, "pm10": null, "emfpm25": null, "pm25": null, "emfso2": null, "so2": null, "emfnox": null, "nox": null }, "geometry": { "type": "Point", "coordinates": [ 76.77472222, 28.31972222 ] } },
{ "type": "Feature", "properties": { "id": "WSI-188", "name": "Sector 1, Manesar, Gurugram", "lat": 28.35666667, "lon": 76.94388889, "type": "Plastic_waste", "fuel": null, "region": null, "country": "India", "status": "operating_status", "capacity": "1,403", "emfpm10": null, "pm10": null, "emfpm25": null, "pm25": null, "emfso2": null, "so2": null, "emfnox": null, "nox": null }, "geometry": { "type": "Point", "coordinates": [ 76.94388889, 28.35666667 ] } },
{ "type": "Feature", "properties": { "id": "WSI-189", "name": "Indiaustrial Modern Township Manesar, Manesar, Gurugram", "lat": 28.3575, "lon": 76.91361111000001, "type": "Plastic_waste", "fuel": null, "region": null, "country": "India", "status": "operating_status", "capacity": "1,336", "emfpm10": null, "pm10": null, "emfpm25": null, "pm25": null, "emfso2": null, "so2": null, "emfnox": null, "nox": null }, "geometry": { "type": "Point", "coordinates": [ 76.91361111, 28.3575 ] } },
{ "type": "Feature", "properties": { "id": "WSI-190", "name": "Sector 1, Manesar, Gurugram", "lat": 28.37083333, "lon": 76.94722222, "type": "Plastic_waste", "fuel": null, "region": null, "country": "India", "status": "operating_status", "capacity": "948", "emfpm10": null, "pm10": null, "emfpm25": null, "pm25": null, "emfso2": null, "so2": null, "emfnox": null, "nox": null }, "geometry": { "type": "Point", "coordinates": [ 76.94722222, 28.37083333 ] } },
{ "type": "Feature", "properties": { "id": "WSI-191", "name": "Manesar, Gurgaon, Gurugram", "lat": 28.38444444, "lon": 76.92944444, "type": "Plastic_waste", "fuel": null, "region": null, "country": "India", "status": "operating_status", "capacity": "792", "emfpm10": null, "pm10": null, "emfpm25": null, "pm25": null, "emfso2": null, "so2": null, "emfnox": null, "nox": null }, "geometry": { "type": "Point", "coordinates": [ 76.92944444, 28.38444444 ] } },
{ "type": "Feature", "properties": { "id": "WSI-192", "name": "Mathura, Uttar Pradesh, 281001", "lat": 27.46083333, "lon": 77.71194444, "type": "Plastic_waste", "fuel": null, "region": null, "country": "India", "status": "operating_status", "capacity": "1,907", "emfpm10": null, "pm10": null, "emfpm25": null, "pm25": null, "emfso2": null, "so2": null, "emfnox": null, "nox": null }, "geometry": { "type": "Point", "coordinates": [ 77.71194444, 27.46083333 ] } },
{ "type": "Feature", "properties": { "id": "WSI-193", "name": "VrIndiaavan, Mathura, Uttar Pradesh", "lat": 27.55611111, "lon": 77.68222222, "type": "Plastic_waste", "fuel": null, "region": null, "country": "India", "status": "operating_status", "capacity": "1,414", "emfpm10": null, "pm10": null, "emfpm25": null, "pm25": null, "emfso2": null, "so2": null, "emfnox": null, "nox": null }, "geometry": { "type": "Point", "coordinates": [ 77.68222222, 27.55611111 ] } },
{ "type": "Feature", "properties": { "id": "WSI-194", "name": "NH148B, Bhiwani, Bhiwani district", "lat": 28.78138889, "lon": 76.12472222, "type": "Plastic_waste", "fuel": null, "region": null, "country": "India", "status": "operating_status", "capacity": "3,094", "emfpm10": null, "pm10": null, "emfpm25": null, "pm25": null, "emfso2": null, "so2": null, "emfnox": null, "nox": null }, "geometry": { "type": "Point", "coordinates": [ 76.12472222, 28.78138889 ] } },
{ "type": "Feature", "properties": { "id": "WSI-195", "name": "Rohtak, Haryana, 124001", "lat": 28.87777778, "lon": 76.55305556, "type": "Plastic_waste", "fuel": null, "region": null, "country": "India", "status": "operating_status", "capacity": "9,814", "emfpm10": null, "pm10": null, "emfpm25": null, "pm25": null, "emfso2": null, "so2": null, "emfnox": null, "nox": null }, "geometry": { "type": "Point", "coordinates": [ 76.55305556, 28.87777778 ] } },
{ "type": "Feature", "properties": { "id": "WSI-196", "name": "JIndia, Haryana, 126100", "lat": 29.31055556, "lon": 76.30861111, "type": "Plastic_waste", "fuel": null, "region": null, "country": "India", "status": "operating_status", "capacity": "3,054", "emfpm10": null, "pm10": null, "emfpm25": null, "pm25": null, "emfso2": null, "so2": null, "emfnox": null, "nox": null }, "geometry": { "type": "Point", "coordinates": [ 76.30861111, 29.31055556 ] } },
{ "type": "Feature", "properties": { "id": "WSI-197", "name": "Bareilly, Bareilly District, Uttar Pradesh", "lat": 28.42472222, "lon": 79.38972222, "type": "Plastic_waste", "fuel": null, "region": null, "country": "India", "status": "operating_status", "capacity": "558", "emfpm10": null, "pm10": null, "emfpm25": null, "pm25": null, "emfso2": null, "so2": null, "emfnox": null, "nox": null }, "geometry": { "type": "Point", "coordinates": [ 79.38972222, 28.42472222 ] } },
{ "type": "Feature", "properties": { "id": "WSI-198", "name": "Pilibhit, Pilibhit District, Uttar Pradesh", "lat": 28.61888889, "lon": 79.79305556, "type": "Plastic_waste", "fuel": null, "region": null, "country": "India", "status": "operating_status", "capacity": "399", "emfpm10": null, "pm10": null, "emfpm25": null, "pm25": null, "emfso2": null, "so2": null, "emfnox": null, "nox": null }, "geometry": { "type": "Point", "coordinates": [ 79.79305556, 28.61888889 ] } },
{ "type": "Feature", "properties": { "id": "WSI-199", "name": "Mainpuri, Uttar Pradesh, 205001", "lat": 27.21555556, "lon": 79.00861111, "type": "Plastic_waste", "fuel": null, "region": null, "country": "India", "status": "operating_status", "capacity": "685", "emfpm10": null, "pm10": null, "emfpm25": null, "pm25": null, "emfso2": null, "so2": null, "emfnox": null, "nox": null }, "geometry": { "type": "Point", "coordinates": [ 79.00861111, 27.21555556 ] } },
{ "type": "Feature", "properties": { "id": "WSI-200", "name": "Laharpur, Sitapur, Uttar Pradesh", "lat": 27.70972222, "lon": 80.90305556, "type": "Plastic_waste", "fuel": null, "region": null, "country": "India", "status": "operating_status", "capacity": "330", "emfpm10": null, "pm10": null, "emfpm25": null, "pm25": null, "emfso2": null, "so2": null, "emfnox": null, "nox": null }, "geometry": { "type": "Point", "coordinates": [ 80.90305556, 27.70972222 ] } },
{ "type": "Feature", "properties": { "id": "WSI-201", "name": "Moradabad, Uttar Pradesh, India", "lat": 28.95722222, "lon": 78.82444444, "type": "Plastic_waste", "fuel": null, "region": null, "country": "India", "status": "operating_status", "capacity": "3,912", "emfpm10": null, "pm10": null, "emfpm25": null, "pm25": null, "emfso2": null, "so2": null, "emfnox": null, "nox": null }, "geometry": { "type": "Point", "coordinates": [ 78.82444444, 28.95722222 ] } },
{ "type": "Feature", "properties": { "id": "WSI-202", "name": "Rampur, Rampur District, Uttar Pradesh", "lat": 28.81527778, "lon": 79.01361111, "type": "Plastic_waste", "fuel": null, "region": null, "country": "India", "status": "operating_status", "capacity": "7,049", "emfpm10": null, "pm10": null, "emfpm25": null, "pm25": null, "emfso2": null, "so2": null, "emfnox": null, "nox": null }, "geometry": { "type": "Point", "coordinates": [ 79.01361111, 28.81527778 ] } },
{ "type": "Feature", "properties": { "id": "WSI-203", "name": "Kashipur, Udham Singh Nagar, Uttarakhand", "lat": 29.21, "lon": 78.99694444, "type": "Plastic_waste", "fuel": null, "region": null, "country": "India", "status": "operating_status", "capacity": "919", "emfpm10": null, "pm10": null, "emfpm25": null, "pm25": null, "emfso2": null, "so2": null, "emfnox": null, "nox": null }, "geometry": { "type": "Point", "coordinates": [ 78.99694444, 29.21 ] } },
{ "type": "Feature", "properties": { "id": "WSI-204", "name": "NH34, Etah, Uttar Pradesh", "lat": 27.57916667, "lon": 78.62944444, "type": "Plastic_waste", "fuel": null, "region": null, "country": "India", "status": "operating_status", "capacity": "565", "emfpm10": null, "pm10": null, "emfpm25": null, "pm25": null, "emfso2": null, "so2": null, "emfnox": null, "nox": null }, "geometry": { "type": "Point", "coordinates": [ 78.62944444, 27.57916667 ] } },
{ "type": "Feature", "properties": { "id": "WSI-205", "name": "Abohar, Abohar Tahsil, Fazilka", "lat": 30.14166667, "lon": 74.18194444, "type": "Plastic_waste", "fuel": null, "region": null, "country": "India", "status": "operating_status", "capacity": "17,116", "emfpm10": null, "pm10": null, "emfpm25": null, "pm25": null, "emfso2": null, "so2": null, "emfnox": null, "nox": null }, "geometry": { "type": "Point", "coordinates": [ 74.18194444, 30.14166667 ] } },
{ "type": "Feature", "properties": { "id": "WSI-206", "name": "Dhalleke, Dharamkot Tahsil, Moga", "lat": 30.84222222, "lon": 75.14194444, "type": "Plastic_waste", "fuel": null, "region": null, "country": "India", "status": "operating_status", "capacity": "770", "emfpm10": null, "pm10": null, "emfpm25": null, "pm25": null, "emfso2": null, "so2": null, "emfnox": null, "nox": null }, "geometry": { "type": "Point", "coordinates": [ 75.14194444, 30.84222222 ] } },
{ "type": "Feature", "properties": { "id": "WSI-207", "name": "Kapurthala, Kapurthala Tahsil, Kapurthala", "lat": 31.30333333, "lon": 75.33444444, "type": "Plastic_waste", "fuel": null, "region": null, "country": "India", "status": "operating_status", "capacity": "10,907", "emfpm10": null, "pm10": null, "emfpm25": null, "pm25": null, "emfso2": null, "so2": null, "emfnox": null, "nox": null }, "geometry": { "type": "Point", "coordinates": [ 75.33444444, 31.30333333 ] } },
{ "type": "Feature", "properties": { "id": "WSI-208", "name": "Sangaria Road, Hanumangarh, Hanumangarh Tehsil", "lat": 29.64555556, "lon": 74.32055556, "type": "Plastic_waste", "fuel": null, "region": null, "country": "India", "status": "operating_status", "capacity": "1,895", "emfpm10": null, "pm10": null, "emfpm25": null, "pm25": null, "emfso2": null, "so2": null, "emfnox": null, "nox": null }, "geometry": { "type": "Point", "coordinates": [ 74.32055556, 29.64555556 ] } },
{ "type": "Feature", "properties": { "id": "WSI-209", "name": "Focal Point - 2, BathIndiaa, BathIndiaa Tahsil", "lat": 30.18194444, "lon": 74.95333333000001, "type": "Plastic_waste", "fuel": null, "region": null, "country": "India", "status": "operating_status", "capacity": "3,786", "emfpm10": null, "pm10": null, "emfpm25": null, "pm25": null, "emfso2": null, "so2": null, "emfnox": null, "nox": null }, "geometry": { "type": "Point", "coordinates": [ 74.95333333, 30.18194444 ] } },
{ "type": "Feature", "properties": { "id": "WSI-210", "name": "ODR32, Giddarbaha, Gidderbaha Tahsil", "lat": 30.20083333, "lon": 74.67111111, "type": "Plastic_waste", "fuel": null, "region": null, "country": "India", "status": "operating_status", "capacity": "2,080", "emfpm10": null, "pm10": null, "emfpm25": null, "pm25": null, "emfso2": null, "so2": null, "emfnox": null, "nox": null }, "geometry": { "type": "Point", "coordinates": [ 74.67111111, 30.20083333 ] } },
{ "type": "Feature", "properties": { "id": "WSI-211", "name": "Mandi Dabwali, Dabwali, Sirsa", "lat": 29.95805556, "lon": 74.69, "type": "Plastic_waste", "fuel": null, "region": null, "country": "India", "status": "operating_status", "capacity": "2,085", "emfpm10": null, "pm10": null, "emfpm25": null, "pm25": null, "emfso2": null, "so2": null, "emfnox": null, "nox": null }, "geometry": { "type": "Point", "coordinates": [ 74.69, 29.95805556 ] } },
{ "type": "Feature", "properties": { "id": "WSP-212", "name": "Mehmood Booti", "lat": 31.60997221, "lon": 74.38688278, "type": "Dumpsites", "fuel": null, "region": null, "country": "Pakistan", "status": "operating_status", "capacity": "255063.05", "emfpm10": null, "pm10": null, "emfpm25": null, "pm25": null, "emfso2": null, "so2": null, "emfnox": null, "nox": null }, "geometry": { "type": "Point", "coordinates": [ 74.38688278, 31.60997221 ] } },
{ "type": "Feature", "properties": { "id": "WSP-213", "name": "Jam Chakro", "lat": 25.02819399, "lon": 67.03392914, "type": "Dumpsites", "fuel": null, "region": null, "country": "Pakistan", "status": "operating_status", "capacity": "1130306.02", "emfpm10": null, "pm10": null, "emfpm25": null, "pm25": null, "emfso2": null, "so2": null, "emfnox": null, "nox": null }, "geometry": { "type": "Point", "coordinates": [ 67.03392914, 25.02819399 ] } }
]
}
