{
"type": "FeatureCollection",
"name": "steel_plants_IGP",
"crs": { "type": "name", "properties": { "name": "urn:ogc:def:crs:OGC:1.3:CRS84" } },
"features": [
{ "type": "Feature", "properties": { "city": "Hisar", "state": "Haryana", "country": "India", "latitude": 29.127253, "longitude": 75.773075, "status": "Operating", "plant_type": null, "primary__1": null, "capacity": 0.0, "year": 1977, "parent_nam": "Jindal Stainless Ltd", "id": 1 }, "geometry": { "type": "Point", "coordinates": [ 75.773074999635938, 29.127253000300847 ] } },
{ "type": "Feature", "properties": { "city": "Kalyani", "state": "West Bengal", "country": "India", "latitude": 22.976512, "longitude": 88.46118, "status": "Operating", "plant_type": null, "primary__1": null, "capacity": 0.0, "year": 0, "parent_nam": "KR Steel Union Ltd", "id": 2 }, "geometry": { "type": "Point", "coordinates": [ 88.461180000250494, 22.976511999695791 ] } },
{ "type": "Feature", "properties": { "city": "Mathurakismat", "state": "West Bengal", "country": "India", "latitude": 22.378355, "longitude": 87.281773, "status": "Operating", "plant_type": "Integrated", "primary__1": "Crude Steel", "capacity": 0.99, "year": 0, "parent_nam": "Orissa Metaliks Pvt Ltd", "id": 3 }, "geometry": { "type": "Point", "coordinates": [ 87.281773000053036, 22.378355000005673 ] } },
{ "type": "Feature", "properties": { "city": "Asansol", "state": "West Bengal", "country": "India", "latitude": 23.665198, "longitude": 86.917455, "status": "Operating", "plant_type": "Integrated", "primary__1": "Crude Steel", "capacity": 0.0, "year": 0, "parent_nam": "Steel Authority of India Ltd", "id": 4 }, "geometry": { "type": "Point", "coordinates": [ 86.917454999575355, 23.665198000281599 ] } },
{ "type": "Feature", "properties": { "city": "Durgapur", "state": "West Bengal", "country": "India", "latitude": 23.546442, "longitude": 87.249552, "status": "Operating", "plant_type": "Integrated", "primary__1": "Crude Steel", "capacity": 0.0, "year": 0, "parent_nam": "Steel Authority of India Ltd", "id": 5 }, "geometry": { "type": "Point", "coordinates": [ 87.249552000168464, 23.546442000363374 ] } },
{ "type": "Feature", "properties": { "city": "Durgapur", "state": "West Bengal", "country": "India", "latitude": 23.522882, "longitude": 87.275935, "status": "Operating", "plant_type": null, "primary__1": null, "capacity": 0.0, "year": 1965, "parent_nam": "Steel Authority of India Ltd", "id": 6 }, "geometry": { "type": "Point", "coordinates": [ 87.275934999938542, 23.52288200005237 ] } },
{ "type": "Feature", "properties": { "city": "Latibpur", "state": "West Bengal", "country": "India", "latitude": 22.385611, "longitude": 87.287179, "status": "Operating", "plant_type": "Integrated", "primary__1": "Crude Steel", "capacity": 0.0, "year": 0, "parent_nam": "Tata Steel Ltd", "id": 7 }, "geometry": { "type": "Point", "coordinates": [ 87.28717900034745, 22.38561100015767 ] } },
{ "type": "Feature", "properties": { "city": "Ghaziabad", "state": "Uttar Pradesh", "country": "India", "latitude": 28.648921, "longitude": 77.331907, "status": "Operating", "plant_type": null, "primary__1": null, "capacity": 0.0, "year": 1987, "parent_nam": "Tata Steel Ltd", "id": 8 }, "geometry": { "type": "Point", "coordinates": [ 77.331906999885121, 28.648920999814326 ] } },
{ "type": "Feature", "properties": { "city": "Hoshiarpur", "state": "Punjab", "country": "India", "latitude": 31.583478, "longitude": 75.95079, "status": "Operating", "plant_type": null, "primary__1": null, "capacity": 0.0, "year": 1974, "parent_nam": "Usha Martin Ltd", "id": 9 }, "geometry": { "type": "Point", "coordinates": [ 75.950789999579101, 31.583478000188091 ] } },
{ "type": "Feature", "properties": { "city": "Murtazanagar", "state": "Uttar Pradesh", "country": "India", "latitude": 26.581306, "longitude": 80.560423, "status": "Operating", "plant_type": null, "primary__1": null, "capacity": 0.0, "year": 0, "parent_nam": null, "id": 10 }, "geometry": { "type": "Point", "coordinates": [ 80.56042300044264, 26.581306000281188 ] } },
{ "type": "Feature", "properties": { "city": "Unnao", "state": "Uttar Pradesh", "country": "India", "latitude": 26.561084, "longitude": 80.532491, "status": "Operating", "plant_type": null, "primary__1": null, "capacity": 0.0, "year": 0, "parent_nam": null, "id": 11 }, "geometry": { "type": "Point", "coordinates": [ 80.532490999695582, 26.561083999948622 ] } },
{ "type": "Feature", "properties": { "city": "Salanpur", "state": "West Bengal", "country": "India", "latitude": 23.776213, "longitude": 86.866906, "status": "Operating", "plant_type": null, "primary__1": null, "capacity": 0.0, "year": 0, "parent_nam": null, "id": 12 }, "geometry": { "type": "Point", "coordinates": [ 86.866905999935653, 23.776212999709493 ] } },
{ "type": "Feature", "properties": { "city": "Haldia", "state": "West Bengal", "country": "India", "latitude": 22.054668, "longitude": 88.126162, "status": "Operating", "plant_type": null, "primary__1": null, "capacity": 0.0, "year": 0, "parent_nam": null, "id": 13 }, "geometry": { "type": "Point", "coordinates": [ 88.126161999950284, 22.054667999796052 ] } },
{ "type": "Feature", "properties": { "city": "Kolkata", "state": "West Bengal", "country": "India", "latitude": 22.715728, "longitude": 88.372253, "status": "Operating", "plant_type": null, "primary__1": null, "capacity": 0.0, "year": 0, "parent_nam": null, "id": 14 }, "geometry": { "type": "Point", "coordinates": [ 88.372252999871151, 22.715727999670925 ] } },
{ "type": "Feature", "properties": { "city": "Howrah", "state": "West Bengal", "country": "India", "latitude": 22.635024, "longitude": 88.337702, "status": "Operating", "plant_type": null, "primary__1": null, "capacity": 0.0, "year": 0, "parent_nam": null, "id": 15 }, "geometry": { "type": "Point", "coordinates": [ 88.337702000108308, 22.635023999982518 ] } },
{ "type": "Feature", "properties": { "city": "Bawal", "state": "Haryana", "country": "India", "latitude": 28.097508, "longitude": 76.58241, "status": "Operating", "plant_type": null, "primary__1": null, "capacity": 0.0, "year": 0, "parent_nam": null, "id": 16 }, "geometry": { "type": "Point", "coordinates": [ 76.582409999805037, 28.097508000058028 ] } },
{ "type": "Feature", "properties": { "city": "Asoda Todran", "state": "Haryana", "country": "India", "latitude": 28.734516, "longitude": 76.842644, "status": "Operating", "plant_type": null, "primary__1": null, "capacity": 0.0, "year": 0, "parent_nam": null, "id": 17 }, "geometry": { "type": "Point", "coordinates": [ 76.84264400010062, 28.734516000292274 ] } },
{ "type": "Feature", "properties": { "city": "Fatehgarh Sahib", "state": "Punjab", "country": "India", "latitude": 30.651464, "longitude": 76.317017, "status": "Operating", "plant_type": null, "primary__1": null, "capacity": 0.0, "year": 0, "parent_nam": null, "id": 18 }, "geometry": { "type": "Point", "coordinates": [ 76.317016999985583, 30.651463999795315 ] } },
{ "type": "Feature", "properties": { "city": "Ludhiana", "state": "Punjab", "country": "India", "latitude": 30.845731, "longitude": 75.960442, "status": "Operating", "plant_type": null, "primary__1": null, "capacity": 0.0, "year": 0, "parent_nam": null, "id": 19 }, "geometry": { "type": "Point", "coordinates": [ 75.960442000251618, 30.845730999974961 ] } },
{ "type": "Feature", "properties": { "city": "Ludhiana", "state": "Punjab", "country": "India", "latitude": 30.885416, "longitude": 75.897013, "status": "Operating", "plant_type": null, "primary__1": null, "capacity": 0.0, "year": 0, "parent_nam": null, "id": 20 }, "geometry": { "type": "Point", "coordinates": [ 75.897013000085636, 30.885415999998521 ] } },
{ "type": "Feature", "properties": { "city": "Ludhiana", "state": "Punjab", "country": "India", "latitude": 30.887595, "longitude": 75.907098, "status": "Operating", "plant_type": null, "primary__1": null, "capacity": 0.0, "year": 0, "parent_nam": null, "id": 21 }, "geometry": { "type": "Point", "coordinates": [ 75.907098000403224, 30.887595000226629 ] } },
{ "type": "Feature", "properties": { "city": "Karachi", "state": "Sindh", "country": "Pakistan", "latitude": 24.794878, "longitude": 67.353327, "status": "Operating", "plant_type": "DRI", "primary__1": "Iron", "capacity": 1.28, "year": 1977, "parent_nam": "Al Tuwairqi Holding Co", "id": 22 }, "geometry": { "type": "Point", "coordinates": [ 67.353327000243937, 24.794878000081283 ] } },
{ "type": "Feature", "properties": { "city": "Dhabeji", "state": "Sindh", "country": "Pakistan", "latitude": 24.800326, "longitude": 67.504851, "status": "Operating", "plant_type": "Mini-Mill", "primary__1": "Crude Steel", "capacity": 0.6, "year": 1987, "parent_nam": "Amreli Steels Ltd", "id": 23 }, "geometry": { "type": "Point", "coordinates": [ 67.504851000037704, 24.800325999664874 ] } },
{ "type": "Feature", "properties": { "city": "Karachi", "state": "Sindh", "country": "Pakistan", "latitude": 24.840713, "longitude": 67.34738, "status": "Operating", "plant_type": "Downstream", "primary__1": "Finished Products", "capacity": 0.7, "year": 2012, "parent_nam": "Arif Habib Corporation Ltd", "id": 24 }, "geometry": { "type": "Point", "coordinates": [ 67.34738000034946, 24.840713000075464 ] } },
{ "type": "Feature", "properties": { "city": "Karachi", "state": "Sindh", "country": "Pakistan", "latitude": 24.837855, "longitude": 67.231431, "status": "Operating", "plant_type": "Downstream", "primary__1": "Finished Products", "capacity": 1.0, "year": 1966, "parent_nam": "International Industries Ltd", "id": 25 }, "geometry": { "type": "Point", "coordinates": [ 67.231430999792423, 24.83785500022887 ] } },
{ "type": "Feature", "properties": { "city": "Lahore", "state": "Punjab", "country": "Pakistan", "latitude": 31.610191, "longitude": 74.362308, "status": "Operating", "plant_type": null, "primary__1": null, "capacity": 0.0, "year": 1975, "parent_nam": "Ishtiaq Steel Industry", "id": 26 }, "geometry": { "type": "Point", "coordinates": [ 74.362308000246372, 31.610190999808026 ] } },
{ "type": "Feature", "properties": { "city": "Kasur", "state": "Punjab", "country": "Pakistan", "latitude": 31.258774, "longitude": 74.132858, "status": "Operating", "plant_type": "Downstream", "primary__1": "Finished Products", "capacity": 0.12, "year": 2006, "parent_nam": "Ittefaq Iron Industries Ltd", "id": 27 }, "geometry": { "type": "Point", "coordinates": [ 74.132857999909675, 31.258774000179404 ] } },
{ "type": "Feature", "properties": { "city": "Karachi", "state": "Sindh", "country": "Pakistan", "latitude": 24.805135, "longitude": 67.346694, "status": "Operating", "plant_type": "Integrated", "primary__1": "Crude Steel", "capacity": 1.1, "year": 1981, "parent_nam": "Pakistan Steel Mills Corp Pvt Ltd", "id": 28 }, "geometry": { "type": "Point", "coordinates": [ 67.346694000086131, 24.805134999871303 ] } },
{ "type": "Feature", "properties": { "city": "Karachi", "state": "Sindh", "country": "Pakistan", "latitude": 24.96585, "longitude": 67.022604, "status": "Operating", "plant_type": "Mini-Mill", "primary__1": "Crude Steel", "capacity": 0.07, "year": 1975, "parent_nam": "Peoples Steel Mills Ltd", "id": 29 }, "geometry": { "type": "Point", "coordinates": [ 67.022603999827325, 24.965850000289901 ] } },
{ "type": "Feature", "properties": { "city": "Winder", "state": "Balochistan", "country": "Pakistan", "latitude": 25.382244, "longitude": 66.676192, "status": "Operating", "plant_type": "Downstream", "primary__1": "Finished Products", "capacity": 0.2, "year": 1999, "parent_nam": "Siddiqsons Group", "id": 30 }, "geometry": { "type": "Point", "coordinates": [ 66.67619200022871, 25.382244000367681 ] } }
]
}
